개방자치단체코드,관리번호,인허가일자,인허가취소일자,영업상태코드,영업상태명,상세영업상태코드,상세영업상태명,폐업일자,휴업시작일자,휴업종료일자,재개업일자,전화번호,소재지면적,소재지우편번호,지번주소,도로명주소,도로명우편번호,사업장명,최종수정일자,데이터갱신구분,데이터갱신일자,업태구분명,좌표정보(X),좌표정보(Y),점포구분명,경도,위도,행정동
3170000,2.0133170142075e+18,2013-09-06,,1,영업/정상,1,정상영업,,,,,02-2109-7000,24253.99,153-023,서울특별시 금천구 가산동 60번지 22호,서울특별시 금천구 디지털로 185 (가산동),153-801,마리오아울렛 1관,2023-02-28 20:56,U,03:00.0,쇼핑센터,189943.2343,441784.2475,,126.8863434,37.4809927,가산동
3170000,2.0123170142075e+18,2012-09-13,,1,영업/정상,1,정상영업,,,,,02-2109-7013,32887.19,153-801,서울특별시 금천구 가산동 60번지 20호,서울특별시 금천구 벚꽃로 266 (가산동),,마리오아울렛 3관,2023-02-28 21:05,U,03:00.0,쇼핑센터,189759.7131,441814.1159,,126.8863434,37.4809927,가산동
3140000,2.0123140114075e+18,2012-04-05,,1,영업/정상,1,정상영업,,,,,0226470824,496.0,158-753,서울특별시 양천구 목5동 903번지 목동3단지아파트 관리동상가 105호,"서울특별시 양천구 목동서로 100, 105호 (목동,목동3단지아파트 관리동상가)",,롯데슈퍼 목동2점,2024-12-11 13:05,U,03:00.0,구분없음,188700.8512,448020.091,,126.8729411,37.5343613,목5동
3180000,2.0013180076075e+18,1999-05-31,,1,영업/정상,1,정상영업,,,,,02-2679-3350,41973.81,150-723,서울특별시 영등포구 당산동2가 30번지 2호,서울특별시 영등포구 영등포로 109 (당산동2가),150-723,영등포유통상가,2023-03-09 15:28,U,01:00.0,그 밖의 대규모점포,190555.769,446698.8143,,126.8916723,37.5224459,당산1동
3240000,2.0243240289075e+18,2024-11-11,,1,영업/정상,5,영업개시전,,,,,02-2006-2364,239.58,,서울특별시 강동구 성내동 293-12 바로빌딩,"서울특별시 강동구 풍성로38길 9, 바로빌딩 1층 (성내동)",05393,GS THE FRESH 강동성내점,2024-11-11 21:10,I,03:00.0,구분없음,211027.5118,447708.2206,,127.1255408,37.5315668,성내1동
3050000,2.0233050210075e+18,2023-03-14,,1,영업/정상,5,영업개시전,,,,,02-2006-2364,307.23,,서울특별시 동대문구 장안동 310-8 희헌빌딩,"서울특별시 동대문구 장한로28가길 45, 희헌빌딩 (장안동)",02523,GS THE FRESH 동대문장안점,2023-03-14 9:57,I,06:00.0,구분없음,206341.5388,452530.0188,,127.0726073,37.5750533,장안2동
3220000,2.0013220083075e+18,1985-07-08,,1,영업/정상,1,정상영업,,,,,0234494406,10250.0,,서울특별시 강남구 압구정동 515호,"서울특별시 강남구 압구정로 407 (압구정동, 갤러리아백화점)",135-902,갤러리아백화점(동관),2023-03-28 11:23,U,00:00.0,백화점,203604.7617,447316.2228,,127.0415888,37.528088,압구정동
3060000,2.0233060202075e+18,2023-04-04,,1,영업/정상,1,정상영업,,,,,,151.47,,서울특별시 중랑구 망우동 580 중랑숲금호어울림,"서울특별시 중랑구 양원역로 18, 103~106호 (망우동, 중랑숲금호어울림)",02063,GS THE FRESH 중랑망우점,2024-02-13 14:19,U,05:00.0,그 밖의 대규모점포,209579.5427,455549.5894,,127.1092844,37.6022238,망우본동
3120000,2.0183120183075e+18,2012-02-07,,1,영업/정상,1,정상영업,,,,,02-739-6780,1573.0,,서울특별시 서대문구 홍제동 469번지 인왕산 한신휴플러스,"서울특별시 서대문구 통일로 397, 지4층 (홍제동, 인왕산 한신휴플러스)",03730,롯데슈퍼 홍제2점,2024-12-03 21:05,U,05:00.0,구분없음,195281.3955,453657.5348,,126.9473673,37.5852286,홍제1동
3150000,2.0113150123075e+18,2011-07-14,,1,영업/정상,1,정상영업,,,,,02-2643-2211,1524.6,157-900,서울특별시 강서구 화곡4동 830번지 1호,서울특별시 강서구 등촌로5길 80 (화곡동),157-900,씨에스유통 (롯데슈퍼화곡2점),2024-11-29 8:49,U,01:00.0,구분없음,187464.4032,447877.7107,,126.8589653,37.5330747,화곡4동
3070000,2.0233070299075e+18,2023-04-18,,1,영업/정상,1,정상영업,,,,,02-380-5042,828.69,,서울특별시 성북구 길음동 1286-10 길음뉴타운9단지래미안 상가,"서울특별시 성북구 길음로7길 6, 길음뉴타운9단지래미안 상가 지하1층 B04~B08호 (길음동)",02721,이마트에브리데이 길음점,2025-01-22 18:07,U,04:00.0,그 밖의 대규모점포,201912.4356,455775.861,,127.0224484,37.6043083,길음1동
3220000,2.0013220083075e+18,1985-03-18,,1,영업/정상,1,정상영업,,,,,0234494305,15358.0,,서울특별시 강남구 압구정동 494호,"서울특별시 강남구 압구정로 343 (압구정동, 갤러리아백화점)",135-902,갤러리아백화점(서관),2023-03-28 11:22,U,00:00.0,백화점,203470.8484,447369.5799,,127.0400761,37.5285687,압구정동
3050000,2.0233050210075e+18,2023-03-14,,1,영업/정상,1,정상영업,,,,,02-2006-2364,307.23,,서울특별시 동대문구 장안동 310-8 희헌빌딩,"서울특별시 동대문구 장한로28가길 45, 희헌빌딩 (장안동)",02523,GS THE FRESH 동대문장안점,2023-07-10 9:11,U,03:00.0,구분없음,206341.5388,452530.0188,,127.0726073,37.5750533,장안2동
3180000,2.0113180163075e+18,2011-10-02,,1,영업/정상,1,정상영업,,,,,02-832-8546,396.3,150-847,서울특별시 영등포구 신길3동 259번지 4호,서울특별시 영등포구 가마산로69가길 12 (신길동),150-841,홈플러스(주) 익스프레스 신길3점,2024-04-04 17:25,U,06:00.0,구분없음,191936.2544,444885.1687,,126.9095682,37.5063577,신길3동
3010000,2.0143010130075e+18,19680730,,1,영업/정상,1,정상영업,,,,,2265-9611,19023.64,,,서울특별시 중구 장충단로13길 34 (을지로6가),100850,동화상가,2016-03-28 15:58,I,59:59.0,그 밖의 대규모점포,200543.7549,451888.0403,대규모점포,127.0069194,37.5686488,광희동
3230000,2.0093230131075e+18,2009-05-11,,1,영업/정상,1,정상영업,,,,,000221574024,84471.0,138-200,서울특별시 송파구 문정동 292번지 외 29필지,서울특별시 송파구 충민로 10 (문정동),138-962,가든파이브 툴,2023-01-16 17:51,U,06:00.0,쇼핑센터,210480.282,441833.1632,,127.1213821,37.4784619,문정2동
3070000,2.0233070299075e+18,2023-04-18,,1,영업/정상,5,영업개시전,,,,,02-380-5042,828.69,,서울특별시 성북구 길음동 1286-10 길음뉴타운9단지래미안 상가,"서울특별시 성북구 길음로7길 6, 길음뉴타운9단지래미안 상가 지하1층 B04~B08호 (길음동)",02721,이마트에브리데이 길음점,2023-04-20 9:38,I,03:00.0,구분없음,201912.4356,455775.861,,127.0224484,37.6043083,길음1동
3180000,2.0233180255075e+18,2023-05-25,,1,영업/정상,1,정상영업,,,,,02-2006-2676,203.2,,서울특별시 영등포구 문래동6가 33,"서울특별시 영등포구 문래북로 8, 1층 101~106호 (문래동6가)",07280,GS THE FRESH 문래점,2023-10-06 14:22,U,08:00.0,구분없음,189825.7431,446574.1766,,126.8857054,37.5213559,문래동
3220000,2.0243220249075e+18,2024-07-30,,1,영업/정상,5,영업개시전,,,,,02-2006-2364,183.0,,서울특별시 강남구 청담동 109-16 청담범신칼릭스빌2차,"서울특별시 강남구 도산대로89길 35, 지상1층 107, 108호 (청담동, 청담범신칼릭스빌2차)",06012,GS THE FRESH 청담점,2024-07-30 15:36,I,02:00.0,대형마트,204504.3687,447166.9913,,127.0517695,37.5267401,청담동
3220000,2.0013220083075e+18,1988-10-10,,1,영업/정상,1,정상영업,,,,,02 5522233,46111.46,,서울특별시 강남구 삼성동 159번지 7호,"서울특별시 강남구 테헤란로 517 (삼성동, 무역센터현대백화점)",135-730,현대백화점 무역센터점,2024-04-15 15:43,U,07:00.0,백화점,205210.3588,445154.4223,,127.0588432,37.5125278,삼성1동
3200000,2.0243200225075e+18,2024-01-30,,1,영업/정상,1,정상영업,,,,,02-882-4458,162.48,,서울특별시 관악구 봉천동 952-1,"서울특별시 관악구 국회단지길 7, 1층 (봉천동)",08717,GS THE FRESH 관악은천점,2024-02-01 16:42,U,03:00.0,구분없음,194553.8384,442719.4132,,126.939216,37.4866674,보라매동
3120000,2.0223120192075e+18,2022-04-05,,1,영업/정상,1,정상영업,,,,,02-380-5042,998.27,,서울특별시 서대문구 남가좌동 50-3 명지대학교,"서울특별시 서대문구 거북골로 34, 명지대학교 (남가좌동)",03674,이마트에브리데이 명지대점,2024-08-22 17:49,U,04:00.0,구분없음,193139.5239,453106.0026,,126.9231244,37.5802367,남가좌2동
3210000,2.0053210076075e+18,2015-09-22,,1,영업/정상,1,정상영업,,,,,02-3479-1005,64948.72,,서울특별시 서초구 반포동 19번지 3호,서울특별시 서초구 신반포로 176 (반포동),,신세계백화점 강남점,2024-05-28 16:30,U,00:00.0,구분없음,200250.4478,444683.2205,,127.0021093,37.5048882,반포4동
3120000,2.0243120219075e+18,2024-01-31,,1,영업/정상,1,정상영업,,,,,,275.04,,서울특별시 서대문구 대현동 144 신촌럭키아파트 상가동 101호,"서울특별시 서대문구 이화여대길 50-12, 상가동 1층 101호 (대현동, 신촌럭키아파트)",03764,GS THE FRESH 신촌이대역점,2024-04-26 14:11,U,08:00.0,그 밖의 대규모점포,195332.1234,450806.0584,,126.9479636,37.5595237,신촌동
3210000,2.0123210122075e+18,2012-04-24,,1,영업/정상,1,정상영업,,,,,02-536-0004,1049.58,137-061,서울특별시 서초구 방배1동 816번지 1호,서울특별시 방배로33길 29,137-832,롯데슈퍼 방배2점,2024-11-11 12:47,U,03:00.0,그 밖의 대규모점포,198984.3648,443229.8359,,,,
3120000,2.0243120219075e+18,2024-11-12,,1,영업/정상,1,정상영업,,,,,02-2006-2364,237.6,,서울특별시 서대문구 홍제동 474 홍제역해링턴플레이스,"서울특별시 서대문구 세무서8길 30, 32동 1호 (홍제동, 홍제역해링턴플레이스)",03626,GS THE FRESH 홍제해링턴점,2024-11-27 13:42,U,09:00.0,구분없음,195387.6223,454191.4471,,126.9474736,37.5897191,홍제3동
3150000,2.0113150123075e+18,2011-10-05,,1,영업/정상,1,정상영업,,,,,000226055602,162.4,157-881,서울특별시 강서구 화곡1동 343번지 52호,서울특별시 강서구 강서로 43 (화곡동),157-881,롯데쇼핑(주)롯데슈퍼화곡점,2023-05-15 15:53,U,07:00.0,그 밖의 대규모점포,186366.0134,447719.8367,,126.8460967,37.5323257,화곡1동
3230000,2.0233230291075e+18,2023-02-01,,1,영업/정상,1,정상영업,,,,,02-2006-2747,164.83,,서울특별시 송파구 거여동 202-180 송파시그니처롯데캐슬,"서울특별시 송파구 거마로 56(거여동, 송파시그니처롯데캐슬)",05767,GS THE FRESH 송파시그니처점,2023-03-09 10:51,U,01:00.0,구분없음,213149.5228,443705.4731,,127.1494949,37.4954721,거여2동
3150000,2.0113150123075e+18,2011-10-04,,1,영업/정상,1,정상영업,,,,,000226645606,735.3,157-850,서울특별시 강서구 방화2동 533번지 9호,서울특별시 양천로6길 15,157-850,롯데쇼핑(주)롯데슈퍼개화산점,2023-05-15 14:00,U,07:00.0,그 밖의 대규모점포,182944.7314,452207.4273,,126.8076439,37.5716934,방화2동
3230000,2.0233230291075e+18,2023-02-27,,1,영업/정상,1,정상영업,,,,,02-2006-2747,444.37,,서울특별시 송파구 문정동 618 파크하비오,"서울특별시 송파구 송파대로 111, 하비오길동 제1층 호텔로 202동 (문정동, 파크하비오)",05837,GS THE FRESH 송파하비오점,2023-04-10 19:54,U,02:00.0,구분없음,210868.3975,442053.2279,,127.1236753,37.4806169,문정2동
3020000,2.0143020095075e+18,2014-07-31,,1,영업/정상,1,정상영업,,,,,027115602,643.3,,,서울특별시 용산구 백범로 341 (원효로1가),140-111,롯데쇼핑(주)롯데슈퍼원효로점,2023-05-04 15:08,U,07:00.0,구분없음,197045.8495,448447.559,,126.9678941,37.5383556,원효로1동
3170000,2.0133170142075e+18,2013-03-19,,1,영업/정상,1,정상영업,,,,,02-2136-2233,25015.45,153-023,서울특별시 금천구 가산동 60번지 8호,서울특별시 금천구 디지털로10길 9 (가산동),153-801,현대아울렛,2023-05-01 14:20,U,03:00.0,쇼핑센터,190119.4634,441716.6846,,126.8863434,37.4809927,가산동
3240000,2.0113240139075e+18,2011-10-07,,1,영업/정상,1,정상영업,,,,,2290-5853,282.65,134-813,서울특별시 강동구 길동 384번지 1호,서울특별시 강동구 성안로 176 (길동),134-813,롯데쇼핑㈜롯데슈퍼길동점,2024-07-30 10:16,U,01:00.0,구분없음,211983.1816,448483.8891,,127.1363996,37.5385286,길동
3080000,2.0113080139075e+18,20110909,,1,영업/정상,1,정상영업,,,,,000209441510,8319.26,142100,서울특별시 강북구 미아동 1359번지,서울특별시 강북구 삼양로 247 (미아동),142100,롯데쇼핑(주) 롯데마트 삼양점,2022-05-24 14:32,U,06:00.0,복합쇼핑몰,201494.6273,458136.3423,,127.0177326,37.6255909,삼양동
3020000,2.0223020150075e+18,20220629,,1,영업/정상,1,정상영업,,,,,02-3670-0801,9879.92,,서울특별시 용산구 한강로3가 1-1 나진상가,"서울특별시 용산구 청파로 109, 나진상가 14동 (한강로3가)",04370,나진전자월드상가,2022-06-29 10:52,I,01:00.0,전문점,196697.0311,447931.1083,,126.9634186,37.5336217,한강로동
3200000,2.0143200191075e+18,20220325,,1,영업/정상,1,정상영업,,,,,02-877-6661,634.45,,서울특별시 관악구 봉천동 1717-3 관악푸르지오,"서울특별시 관악구 청림6길 3, 관악푸르지오 상가동 110,113,114호 (봉천동)",08734,지에스 더 프레시(GS THE FRESH) 관악청림점,2022-04-01 11:03,U,03:00.0,구분없음,196384.5443,442822.9803,,126.959907,37.4875918,청림동
3120000,2.0213120192075e+18,2021-12-20,,1,영업/정상,1,정상영업,,,,,02-373-5601,178.5,,서울특별시 서대문구 홍은동 400-12,서울특별시 서대문구 가좌로 99(홍은동),03675,롯데프레시 홍은점,2023-08-25 17:54,U,07:00.0,구분없음,193440.5499,453256.426,,126.9265207,37.5815959,홍은2동
3100000,2.0073100109075e+18,2007-08-06,,1,영업/정상,1,정상영업,,,,,9859000,10209.0,,서울특별시 노원구 하계동 284번지 2호,"서울특별시 노원구 한글비석로 57 (하계동, 세이브존)",01784,세이브존,2024-05-21 14:32,U,03:00.0,그 밖의 대규모점포,206044.7764,459360.8777,,127.0687211,37.6378695,하계1동
3130000,2.0013130079075e+18,1998-07-18,,1,영업/정상,1,정상영업,,,,,300-5062,12337.24,,서울특별시 마포구 성산동 533번지 1호,서울특별시 마포구 월드컵로 235 (성산동),,마포농수산물시장,2024-05-28 9:30,U,00:00.0,그 밖의 대규모점포,190931.0009,451427.7221,,126.8981461,37.5650975,성산2동
3220000,2.0143220162075e+18,2012-07-02,,1,영업/정상,1,정상영업,,,,,02-3446-5602,294.9,,,서울특별시 강남구 봉은사로103길 5 (삼성동),135-873,롯데슈퍼 코엑스점,2023-05-09 15:26,U,06:00.0,구분없음,205359.8987,445864.8059,,127.0614067,37.5150272,삼성1동
3160000,2.0223160159075e+18,2022-03-18,,1,영업/정상,1,정상영업,,,,,02-528-0450,40883.22,,서울특별시 구로구 고척동 100-7,,,고척아이파크쇼핑센터,2023-10-12 17:09,U,04:00.0,쇼핑센터,187477.5794,444045.2949,,126.8591765,37.4985426,고척1동
3230000,2.0243230291075e+18,2024-08-27,,1,영업/정상,1,정상영업,,,,,02-2006-2364,281.64,,서울특별시 송파구 문정동 55-6 문정역 마에스트로,"서울특별시 송파구 문정로 1, 지층 B104호-B107호 (문정동, 문정역 마에스트로)",05806,GS THE FRESH 문정역점,2024-11-25 9:47,U,07:00.0,구분없음,210813.5131,442691.1806,,127.1230852,37.486373,문정1동
3100000,1.9983100096075e+18,1998-12-31,,1,영업/정상,1,정상영업,,,,,029314825,7863.67,139-748,서울특별시 노원구 상계동 173번지,서울특별시 노원구 한글비석로 396 (상계동),139-748,상계역전종합상가,2024-06-19 13:56,U,01:00.0,쇼핑센터,206280.7899,462002.499,,127.0719668,37.6603979,상계5동
3180000,2.0013180076075e+18,2001-06-20,,1,영업/정상,1,정상영업,,2019-07-01,2020-06-30,,02-2630-0220,4447.16,,서울특별시 영등포구 당산동5가 16번지 7호,서울특별시 영등포구 양평로 47 (당산동5가),150-045,이랜드리테일 당산점,2024-12-02 15:53,U,04:00.0,그 밖의 대규모점포,191177.5845,447965.6455,,126.9009862,37.5341032,당산2동
3020000,2.0083020095075e+18,19871110,,1,영업/정상,1,정상영업,,,,,02-704-3013,11669.19,,서울특별시 용산구 한강로3가 1번지 1호 나진상가,"서울특별시 용산구 청파로 109, 나진상가 (한강로3가)",04370,나진산업 주식회사,2022-04-13 10:19,U,05:00.0,전문점,196697.0311,447931.1083,,126.9634628,37.5339255,한강로동
3050000,2.0003050082075e+18,19600629,,1,영업/정상,1,정상영업,,,,,02-967-8721,15540.7,,서울특별시 동대문구 제기동 1019 경동시장,"서울특별시 동대문구 고산자로36길 3, 경동시장 (제기동)",02571,경동시장,2022-04-21 9:11,U,03:00.0,시장,203403.0195,452985.7254,,127.0393021,37.5791905,제기동
3060000,2.0113060095075e+18,2011-07-04,,1,영업/정상,1,정상영업,,,,,024918546,466.1,131-122,서울특별시 중랑구 중화2동 314번지 1호,서울특별시 중랑구 동일로129길 35 (중화동),131-883,홈플러스(주) 익스프레스 태릉점,2024-04-15 15:31,U,07:00.0,그 밖의 대규모점포,206771.2173,455221.9895,,127.0774767,37.5993004,중화2동
3100000,2.0113100184075e+18,2011-06-21,,1,영업/정상,1,정상영업,,,,,02-971-5601,397.7,,서울특별시 노원구 공릉동 238번지 53호,"서울특별시 노원구 공릉로 144 (공릉동, 공릉빌딩)",01819,롯데쇼핑(주) 롯데슈퍼공릉점,2023-05-15 18:11,U,07:00.0,구분없음,206952.4441,457814.5296,,127.0808915,37.6235568,공릉2동
3020000,2.0223020150075e+18,20220808,,1,영업/정상,1,정상영업,,,,,02-2006-2364,321.65,,서울특별시 용산구 이촌동 302-52 LG프라자,"서울특별시 용산구 이촌로 200, LG프라자 지하1층 (이촌동)",04427,GS THE FRESH 용산이촌점,2022-09-27 16:49,U,09:00.0,구분없음,197221.4393,446524.5084,,126.9693516,37.5209758,이촌1동
3040000,2.0223040190075e+18,20220713,,1,영업/정상,1,정상영업,,,,,02-2006-2364,203.28,,서울특별시 광진구 구의동 236-53 광진 더프레236,"서울특별시 광진구 자양로 168, 102호 (구의동, 광진 더프레236)",05038,GS THE FRESH 광진구의점,2022-07-29 9:46,U,01:00.0,구분없음,207400.6081,448930.6832,,127.08454,37.5426093,구의1동
3220000,2.0223220249075e+18,20220915,,1,영업/정상,1,정상영업,,,,,02 2006-2678,198.0,,서울특별시 강남구 신사동 638-6,"서울특별시 강남구 압구정로 312, 신사동동 1층 (신사동)",06017,GS THE FRESH 압구정점,2022-09-15 18:50,I,07:00.0,구분없음,203069.4412,447391.1304,,127.035531,37.5287592,압구정동
3100000,2.0053100096075e+18,20050826,,1,영업/정상,1,정상영업,,,,,02950 2500,48227.17,,서울특별시 노원구 상계동 713호,서울특별시 노원구 동일로 1414 (상계동),139708,롯데백화점 노원점,2022-04-25 20:56,U,07:00.0,백화점,205320.2848,461419.8818,,127.0610983,37.6551499,상계2동
3010000,2.0143010130075e+18,19960705,,1,영업/정상,1,정상영업,,,,,02-6366-3056,19056.99,,,서울특별시 중구 을지로45길 62 (신당동),100822,누죤,2020-03-26 17:24,U,40:00.0,그 밖의 대규모점포,201092.2812,451637.9327,대규모점포,127.0130451,37.5669489,신당동
3050000,2.0223050140075e+18,2022-07-11,,1,영업/정상,1,정상영업,,,,,02-721-8286,22487.6,,서울특별시 동대문구 용두동 39-1 청량리역한양수자인그라시엘,"서울특별시 동대문구 고산자로32길 78 (용두동, 청량리역한양수자인그라시엘)",02561,청량리역 한양수자인 그라시엘 판매시설,2023-06-29 10:04,U,01:00.0,그 밖의 대규모점포,203728.022,452778.9652,,127.0430027,37.577315,용신동
3000000,2.0223000202075e+18,2022-06-28,,1,영업/정상,1,정상영업,,,,,02-2006-2678,297.0,,서울특별시 종로구 무악동 82 무악현대아파트,"서울특별시 종로구 통일로 246-10, 무악현대아파트 지하 1층 (무악동)",03025,GS THE FRESH 무악현대점,2023-07-26 16:02,U,08:00.0,대형마트,196467.9751,452566.134,,126.9608065,37.5753907,무악동
3180000,2.0243180255075e+18,2024-10-16,,1,영업/정상,1,정상영업,,,,,02-380-5042,958.6,,서울특별시 영등포구 신길동 3608 비스타동원,"서울특별시 영등포구 신풍로 28, B137호 (신길동, 비스타동원)",07430,(주)이마트에브리데이 신풍역점,2024-10-16 17:00,I,08:00.0,구분없음,191902.2698,444157.3724,,126.9092333,37.4996054,신길6동
3030000,2.0233030103075e+18,2023-09-14,,1,영업/정상,1,정상영업,,,,,02-499-4519,158.8,,서울특별시 성동구 성수동1가 656-1208 성수만세주유소,"서울특별시 성동구 왕십리로 109, 성수만세주유소 1층 (성수동1가)",04768,GS THE FRESG 서울숲점,2023-10-13 10:11,I,05:00.0,구분없음,203841.2255,449475.5401,,127.0442336,37.5475402,성수1가2동
3120000,2.0223120192075e+18,2022-08-16,,1,영업/정상,1,정상영업,,,,,02-380-5124,1133.21,,서울특별시 서대문구 남가좌동 286-1 DMC금호리첸시아,"서울특별시 서대문구 수색로2길 39(남가좌동, DMC금호리첸시아)",03712,이마트에브리데이 남가좌점,2024-08-22 17:54,U,04:00.0,구분없음,192482.4165,452143.4915,,126.9156987,37.5715684,남가좌1동
3180000,2.0223180239075e+18,2022-12-14,,1,영업/정상,1,정상영업,,,,,02-585-0580,5824.25,,서울특별시 영등포구 당산동2가 165 한화포레나당산,"서울특별시 영등포구 당산로 83 (당산동2가, 한화포레나당산)",07264,포레나당산동역세권청년주택 상업시설,2024-01-08 9:44,U,00:00.0,그 밖의 대규모점포,,,,126.8953063,37.5223451,당산1동
3090000,2.0033090087075008e+18,2003-02-03,,1,영업/정상,1,정상영업,,,,,02-954-6442,4036.49,132-731,서울특별시 도봉구 도봉동 30번지 1호 도봉한신쇼핑상가,서울특별시 도봉구 도봉로180나길 41 (도봉동),132-731,도봉한신쇼핑상가,2024-03-08 13:19,U,00:00.0,복합쇼핑몰,204169.8477,464814.7174,,127.0258548,37.6970431,도봉1동
3040000,2.0123040155075e+18,2012-03-21,,1,영업/정상,1,정상영업,,,,,02-3437-5602,132.23,143-817,서울특별시 광진구 구의2동 49번지 4호,서울특별시 광진구 자양로 293 (구의동),143-817,롯데 FRESH 아차산점,2023-03-30 15:10,U,01:00.0,구분없음,208075.5435,449971.642,,127.0919682,37.5527158,구의2동
3140000,2.0223140167075e+18,20221004,,1,영업/정상,5,영업개시전,,,,,02-3459-8016,254.4,,서울특별시 양천구 신정동 86-1,서울특별시 양천구 목동동로 196(신정동),08010,홈플러스 익스프레스 오목교점,2022-10-05 13:25,I,07:00.0,구분없음,188565.0747,446750.8816,,126.871421,37.5229294,신정2동
3050000,2.0133050140075e+18,20131127,,1,영업/정상,1,정상영업,,,,,02-957-2116,3824.55,130050,서울특별시 동대문구 회기동 346번지 18호,서울특별시 동대문구  이문로  37 (회기동),130050,베라체캠퍼스 에비뉴,2022-04-06 11:28,U,08:00.0,그 밖의 대규모점포,204881.3132,454280.0406,,127.0547646,37.5906381,회기동
3140000,2.0123140114075e+18,20120523,,1,영업/정상,1,정상영업,,,,,0226975602,263.0,158095,서울특별시 양천구 신월5동 20번지 28호 외 1필지,"서울특별시 양천구 월정로46길 11 (신월동,외 1필지)",,롯데쇼핑(주)롯데슈퍼 신월점,2022-04-22 17:15,U,04:00.0,구분없음,185164.5599,448756.0336,,126.83131,37.5410972,신월5동
3030000,2.0233030103075e+18,2023-06-16,,1,영업/정상,1,정상영업,,,,,,467.23,,서울특별시 성동구 하왕십리동 1070 센트라스,"서울특별시 성동구 왕십리로 410, 상가(L)동 지하1층 B102,B103호 (하왕십리동, 센트라스)",04701,GS THE FRESH 성동센트라스점,2023-11-03 9:43,U,05:00.0,구분없음,202372.912,451536.6809,,127.0276256,37.5661143,왕십리도선동
3210000,2.0053210076075e+18,2005-03-30,,1,영업/정상,1,정상영업,,,,,0221551052,9250.0,,서울특별시 서초구 양재동 215호 하이브랜드 지하1층,"서울특별시 서초구 매헌로 16 (양재동,하이브랜드 지하1층)",,(주)이마트 양재점,2024-04-17 14:50,U,09:00.0,대형마트,203204.7556,440136.7812,,127.0370146,37.4634041,양재2동
3240000,2.0243240289075e+18,2024-11-14,,1,영업/정상,5,영업개시전,,,,,02-557-8828,66630.64,,서울특별시 강동구 고덕동 353-23,,,고덕비즈밸리 유통판매 복합시설,2024-11-14 18:38,I,06:00.0,복합쇼핑몰,213847.9237,451564.47,,127.1575343,37.5662884,고덕2동
3060000,2.0243060202075e+18,2024-02-08,,1,영업/정상,1,정상영업,,,,,02-434-3043,258.45,,서울특별시 중랑구 신내동 502-5 대명프라자,"서울특별시 중랑구 봉화산로56길 153, 대명프라자 (신내동)",02071,GS THE FRESH 신내점,2024-02-13 14:17,I,05:00.0,그 밖의 대규모점포,208481.6127,455496.9805,,127.0968493,37.6017648,신내1동
3150000,2.0233150200075e+18,2023-01-27,,1,영업/정상,1,정상영업,,,,,,876.0,,서울특별시 강서구 등촌동 73-1 금부빌딩,"서울특별시 강서구 양천로 476, 금부빌딩 (등촌동)",07575,(주)이마트에브리데이 가양역점,2024-07-30 16:50,U,02:00.0,구분없음,186966.0362,451047.2873,,126.8532543,37.5616187,등촌3동
3050000,2.0183050140075e+18,2018-01-25,,1,영업/정상,1,정상영업,,,,,02-380-9461,441.1,,서울특별시 동대문구 제기동 1019번지 신관 2층,"서울특별시 동대문구 고산자로36길 3, 2층 (제기동)",02571,노브랜드 경동시장점,2024-04-30 16:41,U,02:00.0,구분없음,203403.0195,452985.7254,,127.0393021,37.5791905,제기동
3100000,2.0093100109075e+18,2009-09-21,,1,영업/정상,1,정상영업,,,,,02-948-2100,12287.0,139-726,서울특별시 노원구 중계2.3동 509번지 2001아울렛,서울특별시 노원구 동일로204가길 46 (중계동),139-726,이천일아울렛 중계점,2024-11-22 9:16,U,05:00.0,복합쇼핑몰,205931.0533,459884.1972,,127.0679891,37.6413109,중계2.3동
3040000,2.0113040155075e+18,2011-09-22,,1,영업/정상,1,정상영업,,,,,02-463-1903,662.55,143-903,서울특별시 광진구 중곡1동 229번지 5호,서울특별시 광진구 긴고랑로11길 11 (중곡동),143-903,(주)이마트에브리데이 중곡동점,2024-07-25 13:06,U,07:00.0,구분없음,207114.4989,451296.0494,,127.0819286,37.5645949,중곡1동
3090000,2.0123090134075e+18,2012-03-15,,1,영업/정상,1,정상영업,,,,,3491-4297,844.9,132-828,서울특별시 도봉구 방학3동 271번지 2호,서울특별시 도봉구 방학로 223 (방학동),132-828,롯데슈퍼 방학점,2023-05-04 9:02,U,07:00.0,구분없음,202326.1758,462116.4086,,127.0266906,37.6608963,방학3동
3110000,2.0073110111075e+18,2007-04-11,,1,영업/정상,1,정상영업,,,,,02-3417-2001,16972.65,,서울특별시 은평구 대조동 240호,서울특별시 은평구 불광로 20 (대조동),,엔씨백화점 불광점,2024-11-25 9:02,U,07:00.0,쇼핑센터,193661.7324,456379.1939,,126.9290005,37.6097418,대조동
3090000,2.0123090134075e+18,2012-03-15,,1,영업/정상,1,정상영업,,,,,903-5601,705.1,132-032,서울특별시 도봉구 쌍문2동 19번지,서울특별시 도봉구 도당로 10 (쌍문동),132-858,롯데슈퍼 쌍문점,2023-04-25 16:39,U,07:00.0,구분없음,203048.6693,461867.6479,,127.0353611,37.6592018,쌍문2동
3120000,2.0183120183075e+18,20211216,,1,영업/정상,1,정상영업,,,,,02-308-5601,288.3,,서울특별시 서대문구 남가좌동 381 DMC센트레빌,"서울특별시 서대문구 거북골로 120(남가좌동, DMC센트레빌)",03690,롯데슈퍼 남가좌점,2022-04-26 13:44,U,08:00.0,구분없음,192480.0294,452634.5577,,126.9156631,37.5759823,남가좌2동
3070000,2.0223070286075e+18,20100315,,1,영업/정상,1,정상영업,,,,,070-4126-0098,9954.0,,서울특별시 성북구 정릉동 397-9 정릉시장 고객편의시설,"서울특별시 성북구 보국문로11길 18-19, 정릉시장 고객편의시설 (정릉동)",02709,정릉시장상인회,2022-04-13 9:11,U,05:00.0,시장,200729.8596,456347.6448,,127.0090462,37.6094616,정릉4동
3220000,2.0223220249075e+18,20220412,,1,영업/정상,1,정상영업,,,,,023805042,794.7,,서울특별시 강남구 신사동 510-11 강남상가아파트,"서울특별시 강남구 압구정로2길 46, 1층 (신사동, ---------)",06034,이마트에브리데이 강남시장점,2022-04-26 10:07,U,08:00.0,구분없음,201757.4941,446282.4545,,127.0206947,37.5187768,신사동
3180000,2.0213180239075e+18,20211228,,1,영업/정상,1,정상영업,,,,,02-2006-2676,561.4,,서울특별시 영등포구 신길동 4902-6,"서울특별시 영등포구 신길로 162, 1층 일부 (신길동)",07362,GS THE FRESH 신길사러가점,2022-04-25 14:49,U,08:00.0,구분없음,192108.9259,444944.1538,,126.9115558,37.5066851,신길4동
3010000,2.0133010130075e+18,19790525,,1,영업/정상,1,정상영업,,,,,02-2238-4352,13458.03,100451,서울특별시 중구 신당1동 777번지,서울특별시 중구 마장로1길 21 (신당동),,(주)광희패션몰,2022-04-28 16:57,U,00:00.0,그 밖의 대규모점포,200982.7091,451817.384,,127.0119141,37.5686547,신당동
3190000,2.0113190128075e+18,2011-10-04,,1,영업/정상,1,정상영업,,,,,02-380-5042,2355.0,,서울특별시 동작구 사당동 147번지 29호 이수자이,"서울특별시 동작구 사당로 300 (사당동, 이수자이)",07013,(주)이마트에브리데이 이수점,2024-08-01 16:45,U,03:00.0,복합쇼핑몰,198202.4725,442471.241,,126.981811,37.4861382,사당2동
3090000,2.0123090134075e+18,2012-03-18,,1,영업/정상,1,정상영업,,,,,903-5602,197.7,132-041,서울특별시 도봉구 창1동 651번지 36호,서울특별시 도봉구 도봉로110길 65 (창동),132-925,롯데프레쉬 창동점,2023-05-04 9:18,U,07:00.0,구분없음,203207.6253,460455.8376,,127.0355494,37.6467251,창1동
3100000,2.0243100184075e+18,2024-10-18,,1,영업/정상,1,정상영업,,,,,02-2006-2364,294.21,,서울특별시 노원구 상계동 453-2 1층,"서울특별시 노원구 한글비석로 452, 1층 (상계동)",01656,GS THE FRESH 노원비석로점,2024-11-27 11:08,U,09:00.0,구분없음,205914.4627,462406.8507,,127.0678562,37.6640351,상계5동
3190000,2.0233190271075e+18,2023-11-01,,1,영업/정상,1,정상영업,,,,,02-2006-2364,539.78,,서울특별시 동작구 상도동 535 상도2차두산위브트레지움아파트,"서울특별시 동작구 상도로30길 40, 판매/근생시설동 1층 125~131호 (상도동, 상도2차두산위브트레지움아파트)",06964,GS THE FRESH 동작구청점,2024-10-23 9:44,U,05:00.0,구분없음,194870.3844,444631.1127,,126.9427844,37.5038796,상도2동
3160000,2.0073160117075e+18,2007-09-27,,1,영업/정상,1,정상영업,,,,,380-5234,7337.0,,서울특별시 구로구 구로동 3번지 25호 외 31필지,"서울특별시 구로구 새말로 97 (구로동,외 31필지)",,(주) 이마트 신도림점,2024-04-24 9:39,U,07:00.0,대형마트,190232.5245,444978.6827,,126.89028,37.50698,구로5동
3150000,2.0243150200075e+18,2024-10-25,,1,영업/정상,5,영업개시전,,,,,02-3487-6056,27422.0,,"서울특별시 강서구 마곡동 특별계획구역 CP2, CP3-1, CP3-2",,,LEWEST B관,2024-10-30 17:52,U,01:00.0,그 밖의 대규모점포,,,,,,
3120000,2.0213120192075e+18,20211220,,1,영업/정상,1,정상영업,,,,,02-338-5601,357.0,,서울특별시 서대문구 창천동 506-20 아륭빌딩,"서울특별시 서대문구 신촌로 13, 아륭빌딩 (창천동)",03785,롯데슈퍼 창천점,2022-04-26 13:45,U,08:00.0,구분없음,193624.0149,450696.745,,126.9286331,37.5585256,신촌동
3010000,2.0143010130075e+18,19851128,,1,영업/정상,1,정상영업,,,,,02-756-7536,13793.3,,,서울특별시 중구 남대문시장8길 7 (남창동),100804,삼익패션타운,2017-04-07 11:00,I,59:59.0,그 밖의 대규모점포,198091.2021,450913.3407,대규모점포,126.9789465,37.5601693,회현동
3010000,2.0143010130075e+18,19590224,,1,영업/정상,1,정상영업,,,,,02-2267-5617,20707.0,,,서울특별시 중구 을지로36길 35 (오장동),100310,중부시장,2021-08-24 18:32,U,40:00.0,그 밖의 대규모점포,200091.1676,451433.5796,대규모점포,127.0019223,37.5650877,광희동
3010000,2.0143010130075e+18,19940831,,1,영업/정상,1,정상영업,,,,,02-2237-2503,7281.04,,,서울특별시 중구 을지로45길 72 (신당동),100822,디자이너크럽,2020-04-30 15:46,U,40:00.0,그 밖의 대규모점포,201075.6067,451683.0178,대규모점포,127.0131041,37.5674127,신당동
3010000,2.0143010130075e+18,19950401,,1,영업/정상,1,정상영업,,,,,02-757-3421,3613.39,,,서울특별시 중구 명동8가길 27 (충무로2가),100860,선싸인,2020-04-30 15:43,U,40:00.0,그 밖의 대규모점포,198737.5538,451081.8946,대규모점포,126.9865637,37.5620005,명동
3010000,2.0143010130075e+18,19970224,,1,영업/정상,1,정상영업,,,,,02-2250-1115,5590.74,,,서울특별시 중구 마장로1길 18 (신당동),100887,혜양엘리시움,2020-04-30 15:40,U,40:00.0,그 밖의 대규모점포,201047.8997,451814.3504,대규모점포,127.0126001,37.5686642,신당동
3010000,2.0143010130075e+18,20020722,,1,영업/정상,1,정상영업,,,,,02-757-3541,6752.63,,,서울특별시 중구 소월로 9 (남창동),100804,남정종합상가,2020-04-30 15:37,U,40:00.0,그 밖의 대규모점포,197843.8207,450717.3536,대규모점포,126.9764306,37.5587267,회현동
3180000,2.0233180255075e+18,2023-09-05,,1,영업/정상,1,정상영업,,,,,02-380-5042,1075.83,,서울특별시 영등포구 당산동2가 165 한화포레나당산,"서울특별시 영등포구 당산로 83, 지하 102~103호 (당산동2가, 한화포레나당산)",07264,(주)이마트에브리데이 영등포구청점,2024-08-27 16:48,U,09:00.0,구분없음,,,,126.8953063,37.5223451,당산1동
3150000,2.0243150200075e+18,2024-10-25,,1,영업/정상,5,영업개시전,,,,,02-3487-6056,32442.38,,서울특별시 강서구 마곡동 특별계획구역 CP1,,,LEWEST A관,2024-10-30 17:49,U,01:00.0,그 밖의 대규모점포,,,,,,
3030000,2.0233030103075e+18,2023-07-21,,1,영업/정상,1,정상영업,,,,,02-2297-5180,327.3,,서울특별시 성동구 상왕십리동 811 텐즈힐,"서울특별시 성동구 마장로 137, 221동 1층 1230호,1231호,1232(일부)호 (상왕십리동, 텐즈힐)",04700,GS THE FRESH 성동텐즈힐점,2023-10-13 15:02,U,05:00.0,구분없음,202113.8696,451897.5819,,127.0247058,37.5693767,왕십리도선동
3150000,2.0233150200075e+18,2023-09-07,,1,영업/정상,1,정상영업,,,,,,3015.0,,서울특별시 강서구 화곡동 370-76,,,화곡 더리브스카이,2023-09-07 12:16,I,09:00.0,그 밖의 대규모점포,185745.7326,448140.2927,,126.8395116,37.5354196,화곡1동
3230000,2.0233230291075e+18,2023-12-07,,1,영업/정상,1,정상영업,,,,,,197.2,,서울특별시 송파구 석촌동 5-8,서울특별시 송파구 백제고분로33길 25 (석촌동),05612,GS THE FRESH 송파석촌호수점,2023-12-13 8:45,U,05:00.0,구분없음,208648.8501,444767.4404,,127.0986161,37.5050856,석촌동
3020000,2.0223020203075e+18,2024-10-28,,1,영업/정상,1,정상영업,,,,,02-716-3872,13126.83,,서울특별시 용산구 한강로2가 15-2 나진상가,"서울특별시 용산구 청파로 125, 나진상가 (한강로2가)",04370,"나진상가 17,18동",2024-10-31 16:35,I,02:00.0,전문점,196873.0016,447960.2062,,126.9654128,37.5338904,한강로동
3170000,2.0233170257075e+18,2023-12-29,,1,영업/정상,1,정상영업,,,,,02-422-0310,18020.0,,서울특별시 금천구 가산동 60-26,서울특별시 금천구 디지털로 178 (가산동),08513,가산퍼블릭 상업시설,2025-01-09 10:55,U,01:00.0,그 밖의 대규모점포,189930.5079,441616.4607,,126.8868607,37.4758932,가산동
3180000,2.0113180163075e+18,2011-05-23,,1,영업/정상,1,정상영업,,,,,02-2280-1234,3536.87,,,서울특별시 영등포구 여의동로3길 10 (여의도동),150-893,(주)이마트 여의도점,2024-04-19 17:32,U,01:00.0,대형마트,193393.0966,446218.4438,,126.9260954,37.518272,여의동
3060000,2.0213060175075e+18,2021-11-25,,1,영업/정상,1,정상영업,,,,,02-2290-5704,1150.47,,서울특별시 중랑구 신내동 646 금강리빙스텔,"서울특별시 중랑구 신내로 211, 금강리빙스텔 비01호 (신내동)",02024,롯데프레시앤델리 봉화산역점,2024-12-19 13:22,U,01:00.0,그 밖의 대규모점포,208112.8602,457113.6384,,127.0926931,37.6163279,신내2동
3150000,2.0233150200075e+18,2023-12-28,,1,영업/정상,1,정상영업,,,,,02-3662-4171,673.32,,서울특별시 강서구 염창동 242-11 한희빌딩,"서울특별시 강서구 양천로67길 15, 한희빌딩 1층 (염창동)",07545,GS THE FRESH 강서증미역점,2023-12-29 9:08,I,01:00.0,구분없음,188237.9417,450314.0879,,126.8676685,37.5550314,염창동
3190000,2.0113190128075e+18,2011-07-14,,1,영업/정상,1,정상영업,,,,,8268545,304.1,156-843,서울특별시 동작구 상도4동 255번지 4호,서울특별시 동작구 성대로 43 (상도동),,홈플러스(주) 익스프레스 상도점,2024-03-20 14:21,U,02:00.0,쇼핑센터,194064.9941,444089.8383,,126.9337989,37.4991561,상도4동
3150000,2.0053150100075e+18,2005-08-26,,1,영업/정상,1,정상영업,,,,,000226608121,22173.0,157-840,서울특별시 강서구 등촌동 639번지 11호,서울특별시 강서구  화곡로  398 (등촌동),157-840,홈플러스(주) 강서점,2024-02-29 8:58,U,02:00.0,대형마트,187119.9482,450691.5932,,126.854472,37.5592666,등촌1동
3230000,2.0073230131075e+18,2007-07-09,,1,영업/정상,1,정상영업,,,,,0234688122,13934.64,,서울특별시 송파구 신천동 7번지 12  호,서울특별시 송파구 올림픽로35가길 16 (신천동),138-240,홈플러스(주)잠실점,2024-03-05 15:16,U,07:00.0,대형마트,209039.148,446007.9668,,127.0993119,37.5188955,잠실6동
3080000,1.9983080092075e+18,1998-06-25,,1,영업/정상,1,정상영업,,,,,02 9822278,4239.91,,서울특별시 강북구 수유동 63번지,"서울특별시 강북구 도봉로 261 (수유동, 삼호아파트,수유프라자)",01114,수유프라자,2024-03-20 21:32,U,02:00.0,그 밖의 대규모점포,202000.5137,458815.9777,,127.0234677,37.6316986,수유1동
3190000,2.0223190216075e+18,2022-07-22,,1,영업/정상,1,정상영업,,,,,02-792-0653,8995.84,,서울특별시 동작구 노량진동 16-1 노량진 드림스퀘어 복합빌딩,"서울특별시 동작구 노들로2길 7, 노량진 드림스퀘어 복합빌딩 (노량진동)",06900,노량진 드림스퀘어,2024-03-07 9:42,U,09:00.0,그 밖의 대규모점포,194571.1524,445790.5499,,126.9394019,37.5143356,노량진2동
3200000,2.0133200191075e+18,2013-06-27,,1,영업/정상,1,정상영업,,,,,02-6948-8121,14784.0,151-080,서울특별시 관악구 남현동 산 69번지 51호,서울특별시 관악구 과천대로 909 (남현동),151-801,홈플러스 서울남현점,2024-03-12 10:28,U,04:00.0,대형마트,198374.4733,441033.513,,126.9809927,37.4704449,남현동
3070000,2.0103070134075e+18,2010-05-19,,1,영업/정상,1,정상영업,,,,,02-3669-8000,17817.0,,서울특별시 성북구 하월곡동 46-73 코업스타클래스,"서울특별시 성북구 화랑로 76, 코업스타클래스 (하월곡동)",02751,홈플러스 월곡점,2024-03-08 16:31,U,00:00.0,대형마트,203502.0041,455500.569,,127.0404609,37.6018326,월곡2동
3000000,2.0193000202075e+18,20190917,,1,영업/정상,1,정상영업,,,,,02-430-4200,25198.02,,서울특별시 종로구 낙원동 288번지 낙원상가,"서울특별시 종로구 삼일대로 428, 낙원상가 506호 (낙원동)",03140,낙원상가,2019-09-25 15:06,U,40:00.0,그 밖의 대규모점포,198838.913,452214.211,대규모점포,126.9876399,37.5722238,종로1.2.3.4가동
3190000,2.0113190128075e+18,2011-08-26,,1,영업/정상,1,정상영업,,,,,34818542,978.3,156-819,서울특별시 동작구 사당3동 252번지 22호,서울특별시 동작구 사당로 215 (사당동),,홈플러스(주) 익스프레스 남성점,2024-03-20 14:18,U,02:00.0,복합쇼핑몰,197507.8344,442470.9296,,126.9722712,37.4842369,사당3동
3080000,2.0133080139075e+18,1962-08-21,,1,영업/정상,1,정상영업,,,,,02-993-0240,1061.0,,,서울특별시 강북구 노해로23길 68 (수유동),142-879,우이시장,2024-03-20 21:34,U,02:00.0,그 밖의 대규모점포,201692.8689,460402.0655,,127.0200277,37.6460399,수유2동
3230000,2.0133230198075e+18,2011-12-02,,1,영업/정상,1,정상영업,,,,,000230128545,835.0,138-814,서울특별시 송파구 거여2동 27번지 5호 B101호,서울특별시 오금로 512,138-813,홈플러스(주)익스프레스 거여점,2024-03-22 14:18,U,04:00.0,구분없음,212800.7,443397.2619,,127.1446622,37.4928413,거여2동
3230000,2.0243230291075e+18,2024-04-19,,1,영업/정상,1,정상영업,,,,,02-2006-2364,168.16,,서울특별시 송파구 방이동 103-15,"서울특별시 송파구 올림픽로32길 53, 1층 (방이동)",05546,GS THE FRESH 송파나루역점,2024-04-22 10:14,I,04:00.0,구분없음,209841.1068,445595.1259,,127.1121126,37.5125357,방이2동
3180000,1.9913180117075e+18,1991-05-01,,1,영업/정상,1,정상영업,,,,,0226708832,53086.27,,서울특별시 영등포구 영등포동 618-496,서울특별시 영등포구 경인로 846 (영등포동),07306,롯데백화점 영등포점,2024-04-22 14:45,U,04:00.0,백화점,191741.3458,445970.3076,,126.9073819,37.5159236,영등포본동
3230000,2.0133230198075e+18,2012-03-30,,1,영업/정상,1,정상영업,,,,,000204748542,323.0,,서울특별시 송파구 풍납동 163번지,서울특별시 송파구  올림픽로51길  52 (풍납동),,홈플러스(주)익스프레스 풍납점,2024-03-22 16:25,U,04:00.0,구분없음,210378.825,447916.0439,,127.1182161,37.5334343,풍납2동
3120000,1.9703120093075e+18,1970-08-14,,1,영업/정상,1,정상영업,,,,,02-3216-9393,6606.0,120-857,서울특별시 서대문구 홍제3동 294번지 6호,서울특별시 통일로 484 (유진상가),120-760,유진상가,2024-12-03 20:58,U,05:00.0,시장,194811.7563,454300.7397,,126.9429552,37.5914096,홍제3동
3100000,2.0243100184075e+18,2024-01-02,,1,영업/정상,1,정상영업,,,,,,158.34,,서울특별시 노원구 상계동 95-3,"서울특별시 노원구 덕릉로 753, 노원롯데캐슬시그니처아파트 근린생활시설 2동 16,17호 (상계동)",01640,GS THE FRESH 노원캐슬점,2024-11-27 11:08,U,09:00.0,구분없음,206799.0201,462509.6384,,127.0778609,37.6649594,상계3.4동
3000000,2.0193000202075e+18,20190917,,1,영업/정상,1,정상영업,,,,,02-743-6133,25198.02,,서울특별시 종로구 낙원동 288번지 낙원상가,"서울특별시 종로구 삼일대로 428, 낙원상가 (낙원동)",03140,낙원상가,2019-09-25 15:05,I,22:37.0,그 밖의 대규모점포,198838.913,452214.211,대규모점포,126.9876399,37.5722238,종로1.2.3.4가동
3040000,2.0243040190075e+18,2024-01-05,,1,영업/정상,5,영업개시전,,,,,02-444-8604,34138.84,,서울특별시 광진구 자양동 680-63,,,자양1재정비촉진구역 도시정비형 재개발사업 판매시설,2024-01-05 10:04,I,07:00.0,쇼핑센터,,,,127.088713,37.5354016,자양2동
3120000,2.0243120219075e+18,2024-01-31,,1,영업/정상,1,정상영업,,,,,02-2006-2364,275.04,,서울특별시 서대문구 대현동 144 신촌럭키아파트 상가동 101호,"서울특별시 서대문구 이화여대길 50-12, 상가동 1층 101호 (대현동, 신촌럭키아파트)",03764,GS THE FRESH 신촌이대역점,2024-04-26 14:11,U,08:00.0,그 밖의 대규모점포,195332.1234,450806.0584,,126.9479636,37.5595237,신촌동
3230000,2.0133230198075e+18,2011-09-05,,1,영업/정상,1,정상영업,,,,,024188545,213.2,138-933,서울특별시 송파구 잠실4동 44번지 1호,서울특별시 송파구 석촌호수로 133 (잠실동),138-220,홈플러스(주)익스프레스 잠실점,2024-03-22 16:16,U,04:00.0,구분없음,208045.233,445054.4108,,,,
3230000,2.0133230198075e+18,2011-09-05,,1,영업/정상,1,정상영업,,,,,000234318545,398.6,,,서울특별시 송파구 가락로28길 7 (송파동),138-854,홈플러스(주) 익스프레스 송파점,2024-03-22 14:17,U,04:00.0,구분없음,210252.9067,444914.3074,,127.1167379,37.5063668,송파2동
3140000,2.0113140114075e+18,2011-05-20,,1,영업/정상,1,정상영업,,,,,0269231234,14074.76,158-766,서울특별시 양천구 목1동 962번지 1호 목동트라팰리스 내,서울특별시 양천구 오목로 299 (목동),158-766,(주)이마트 목동점,2024-04-23 9:29,U,05:00.0,대형마트,188551.2991,447076.2881,,126.8703992,37.5260134,목1동
3160000,2.0073160117075e+18,1999-07-27,,1,영업/정상,1,정상영업,,,,,"2009-1001,1051",9927.72,152-050,서울특별시 구로구 구로동 188번지 26호,서울특별시 구로구 디지털로32길 43 (구로동),,(주)이마트 구로점,2024-04-24 9:37,U,07:00.0,대형마트,190901.9779,442466.8134,,126.8981285,37.4849014,구로3동
3170000,2.0243170257075e+18,2024-04-29,,1,영업/정상,1,정상영업,,,,,02-890-8122,0.0,,서울특별시 금천구 시흥동 992-47 홈플러스테스테스코(주)시흥점,"서울특별시 금천구 시흥대로 201, 홈플러스테스테스코(주)시흥점 (시흥동)",08632,홈플러스 주식회사,2024-04-29 15:44,I,01:00.0,대형마트,191152.4326,438865.1607,,126.9008033,37.4519108,시흥1동
3050000,2.0113050140075e+18,2011-12-28,,1,영업/정상,1,정상영업,,,,,000269082123,1478.96,130-100,서울특별시 동대문구 장안동 580번지,서울특별시 동대문구 한천로 42 (장안동),130-837,노브랜드 동대문 장안점,2024-04-30 16:41,U,02:00.0,대형마트,205423.9695,451556.2106,,127.0622143,37.566279,장안1동
3000000,2.0123000129075e+18,19550705,,1,영업/정상,1,정상영업,,,,,2267-0291,16128.75,110440,서울특별시 종로구 예지동 6번지 1호,서울특별시 종로구 창경궁로 88 (예지동),110834,광장시장,2020-10-04 14:50,U,40:00.0,복합쇼핑몰,199837.4143,451974.1285,대규모점포,126.9989495,37.5700678,종로1.2.3.4가동
3070000,2.0143070216075e+18,2012-02-24,,1,영업/정상,1,정상영업,,,,,02-6936-1251,10745.0,136-735,서울특별시 성북구 하월곡동 230번지 동일하이빌뉴시티아파트,"서울특별시 성북구 종암로 167 (하월곡동, 동일하이빌뉴시티아파트)",136-735,이마트 하월곡점,2024-04-29 13:50,U,01:00.0,대형마트,202667.4688,455858.9208,,127.0310039,37.6050598,길음2동
3070000,2.0143070216075e+18,2008-05-29,,1,영업/정상,1,정상영업,,,,,02-944-1052,10006.0,136-800,서울특별시 성북구 길음동 25번지 2호,서울특별시 성북구 도봉로 17 (길음동),136-800,이마트 미아점,2024-04-29 13:49,U,01:00.0,대형마트,202555.3009,456503.0662,,127.0296318,37.6113736,길음2동
3110000,2.0243110217075e+18,2024-05-01,,1,영업/정상,1,정상영업,,,,,,186.21,,서울특별시 은평구 신사동 228-5,"서울특별시 은평구 가좌로 331, 1층 (신사동)",03440,GS THE FRESH 은평가좌점,2024-09-02 20:40,U,04:00.0,구분없음,191844.9137,454908.4954,,126.9084637,37.5964706,신사2동
3080000,2.0243080190075e+18,2024-02-07,,1,영업/정상,1,정상영업,,,,,02-2006-2364,227.01,,"서울특별시 강북구 미아동 7-5 대지쇼핑프라자 1층 101~104호, 106호~122호","서울특별시 강북구 오패산로30길 10, 대지쇼핑프라자 1층 101~104호, 106호~122호 (미아동)",01237,GS THE FRESH 북서울숲점,2024-05-01 10:16,U,03:00.0,구분없음,203008.205,456808.9721,,127.0348745,37.6136288,송중동
3050000,2.0113050140075e+18,2011-09-26,,1,영업/정상,1,정상영업,,,,,000222467292,967.51,130-031,서울특별시 동대문구 답십리1동 530번지 11호  외1필지 지층1호~13호,서울특별시 동대문구 고미술로 49 (답십리동),130-805,이마트에브리데이 답십리점,2024-07-23 15:23,U,06:00.0,구분없음,204638.4864,451699.7658,,127.0501344,37.5706407,답십리1동
3100000,2.0113100184075e+18,2011-12-29,,1,영업/정상,1,정상영업,,,,,948-6767,739.8,139-800,서울특별시 노원구 공릉2동 89번지 1호  대덕프라자 지층 101~102호,서울특별시 노원구 노원로1길 67 (공릉동),139-800,(주)이마트에브리데이 공릉동점,2024-07-30 9:04,U,01:00.0,구분없음,207311.1758,457610.712,,127.083268,37.6205653,공릉2동
3210000,2.0123210122075e+18,2012-05-14,,1,영업/정상,1,정상영업,,,,,530-5802,15065.56,137-030,서울특별시 서초구 잠원동 70번지 2호,서울특별시 서초구 잠원로 51 (잠원동),137-908,뉴코아아울렛,2024-12-03 9:43,U,05:00.0,전문점,200576.6086,445241.8984,,127.0060054,37.5083534,반포3동
3010000,2.0143010130075e+18,19761129,,1,영업/정상,1,정상영업,,,,,02-2268-6691,18500.0,,,서울특별시 중구 동호로37길 20 (방산동),100812,방산종합시장,2022-04-26 16:03,U,08:00.0,그 밖의 대규모점포,200002.9527,451823.5325,,127.0008227,37.5687248,을지로동
3050000,2.0143050140075e+18,2014-09-25,,1,영업/정상,1,정상영업,,,,,029598545,141.0,,,서울특별시 동대문구 경희대로 20 (회기동),130-872,홈플러스 익스프레스 서울회기점,2024-03-25 9:56,U,07:00.0,구분없음,204599.373,454552.7797,,127.0529264,37.5933667,회기동
3240000,2.0243240289075e+18,2024-06-18,,1,영업/정상,1,정상영업,,,,,02-479-2384,31500.83,,서울특별시 강동구 천호동 423-200,,,강동밀레니얼 중흥S-클래스 쇼핑센터,2024-12-05 9:09,U,07:00.0,쇼핑센터,211150.8122,448805.1451,,127.1269881,37.5414447,천호2동
3110000,2.0113110131075e+18,2011-08-11,,1,영업/정상,1,정상영업,,,,,02  386 8547,272.0,122-923,서울특별시 은평구 응암3동 124번지 17호,서울특별시 은평구 응암로 247 (응암동),122-923,홈플러스(주)익스프레스응암점,2024-03-27 14:50,U,09:00.0,그 밖의 대규모점포,192674.1327,454664.1668,,126.9179746,37.594802,응암3동
3000000,2.0043000076075e+18,20041210,,1,영업/정상,1,정상영업,,,,,0222798751,11750.0,,서울특별시 종로구 종로6가 270번지 3호 동대문종합시장D동상가,"서울특별시 종로구 종로 266, 동대문종합시장D동상가  동 (종로6가)",03198,동대문종합시장D동상가,2019-06-17 13:15,U,40:00.0,그 밖의 대규모점포,200579.4098,452035.3477,준대규모점포,127.0071214,37.5708561,종로5.6가동
3110000,2.0113110131075e+18,2011-07-25,,1,영업/정상,1,정상영업,,,,,02-358-8546,510.0,122-819,서울특별시 은평구 구산동 1번지 24호,서울특별시 은평구 서오릉로 145 (구산동),,홈플러스(주)익스프레스구산점,2024-03-27 14:52,U,09:00.0,그 밖의 대규모점포,192563.8745,456570.0846,,126.9171827,37.6112121,구산동
3240000,2.0113240139075e+18,2011-09-27,,1,영업/정상,1,정상영업,,,,,4410671,324.0,134-857,서울특별시 강동구 암사1동 473번지 3호,서울특별시 강동구 고덕로24길 50 (암사동),134-854,홈플러스(주) 익스프레스 암사점,2024-11-28 10:21,U,00:00.0,구분없음,211868.2443,450020.3552,,127.1338631,37.5524093,암사1동
3110000,2.0073110111075e+18,20071221,,1,영업/정상,1,정상영업,,,,,302-1666,3320.0,122010,서울특별시 은평구 응암동 754번지 1호,,,대림시장,2013-12-31 16:07,I,59:59.0,시장,192661.6613,453828.586,대규모점포,126.9177131,37.5867399,응암3동
3010000,2.0163010130075e+18,2016-03-07,,1,영업/정상,1,정상영업,,,,,02-777-1163,9272.66,,,"서울특별시 중구 을지로 276 (을지로7가, apMPLACE)",04565,에이피엠플레이스,2024-04-30 16:18,U,02:00.0,쇼핑센터,200673.0115,451443.2799,,127.0084331,37.5653036,광희동
3110000,2.0013110088075e+18,19721113,,1,영업/정상,1,정상영업,,,,,02 3026729,,,서울특별시 은평구 응암동 300번지 11 호   ,,,양지시장,2007-07-14 10:16,I,59:59.0,그 밖의 대규모점포,,,,,,
3000000,2.0113000129075e+18,2011-08-16,,1,영업/정상,1,정상영업,,,,,02-743-8546,273.3,110-876,서울특별시 종로구 숭인동 76번지 롯데캐슬천지인 1층,서울특별시 종로구 종로 347 (숭인동),110-876,홈플러스(주)익스프레스 숭인점,2024-04-01 18:07,U,03:00.0,구분없음,201359.5335,452395.6591,,127.0161891,37.5738554,숭인1동
3000000,2.0043000129075e+18,19920704,,1,영업/정상,1,정상영업,,,,,02  519 2800,6906.53,110752,서울특별시 종로구 서린동 33번지 영풍빌딩,서울특별시 종로구 청계천로 41 (서린동),110752,(주)영풍문고,2022-04-25 14:14,U,07:00.0,전문점,198351.8187,451921.603,,126.982132,37.5695814,종로1.2.3.4가동
3010000,2.0103010100075e+18,20101008,,1,영업/정상,1,정상영업,,,,,2238-0981,17758.45,100451,서울특별시 중구 신당1동 773번지,서울특별시 중구 마장로 3 (신당동),,맥스타일,2023-01-02 8:56,U,04:00.0,전문점,200863.5941,451837.4816,,127.010549,37.5688269,신당동
3240000,2.0113240139075e+18,2011-09-27,,1,영업/정상,1,정상영업,,,,,4758546,189.1,134-850,서울특별시 강동구 성내1동 521번지,서울특별시 강동구 풍성로 138 (성내동),134-850,홈플러스(주) 익스프레스 성내점,2024-04-02 21:47,U,04:00.0,구분없음,211185.4977,447670.8521,,127.1273553,37.5312225,성내1동
3100000,2.0043100184075e+18,2004-06-01,,1,영업/정상,1,정상영업,,,,,930-8546,1089.67,139-860,서울특별시 노원구 중계동 360번지 2호,서울특별시 노원구 중계로 225 (중계동),139-860,홈플러스(주)익스프레스 중계점,2024-08-06 10:03,U,08:00.0,구분없음,206490.2474,460830.6154,,127.0729282,37.6506304,중계1동
3120000,2.0183120183075e+18,2011-07-01,,1,영업/정상,1,정상영업,,,,,02-395-3674,2040.0,,서울특별시 서대문구 홍제동 294번지 46호 유진상가,"서울특별시 서대문구 통일로 484, 유진상가 1층 (홍제동)",03628,롯데슈퍼 유진점,2024-12-03 21:02,U,05:00.0,구분없음,194850.361,454344.4325,,126.9429552,37.5914096,홍제3동
3210000,1.9953210122075e+18,1995-06-01,,1,영업/정상,1,정상영업,,,,,509-5000,3752.0,,,서울특별시 서초구 잠원로 69 (잠원동),137-907,(주)이랜드킴스클럽 강남점,2024-12-03 9:42,U,05:00.0,대형마트,200538.8275,445335.6672,,127.0069888,37.5102644,반포3동
3010000,2.0173010130075e+18,20170323,,1,영업/정상,1,정상영업,,,,,02-2290-7125,13006.43,,,"서울특별시 중구 마장로 22 (신당동, DDP FASHION MALL)",04566,DDP FASHION MALL,2022-08-18 15:00,U,00:00.0,그 밖의 대규모점포,200999.3562,451654.4182,,127.0121081,37.567312,신당동
3010000,2.0163010130075e+18,2016-10-07,,1,영업/정상,1,정상영업,,,,,02-2236-8543,251.57,,,서울특별시 중구 다산로 222 (신당동),04586,홈플러스익스프레스 신당점,2024-03-22 9:36,U,04:00.0,구분없음,201308.5365,451174.3655,,127.0156043,37.5628689,동화동
3150000,2.0243150200075e+18,2024-01-10,,1,영업/정상,1,정상영업,,,,,02-6925-2518,45167.97,,서울특별시 강서구 마곡동 769,"서울특별시 강서구 공항대로 165, (마곡동 769 및 769-1)        [마곡지구 특별계획구역 CP4블록] (마곡동)",07800,원그로브몰,2024-12-09 16:02,U,01:00.0,쇼핑센터,184449.7363,451015.1352,,126.8247965,37.5612869,공항동
3120000,2.0243120219075e+18,2024-07-25,,1,영업/정상,1,정상영업,,,,,02-304-4025,7391.45,,서울특별시 서대문구 남가좌동 396 DMC금호리첸시아,"서울특별시 서대문구 수색로2길 39, B1,1,2층 (남가좌동, DMC금호리첸시아)",03712,DMC금호리첸시아몰,2024-07-26 11:58,I,08:00.0,그 밖의 대규모점포,192482.4165,452143.4915,,126.9158722,37.5707722,남가좌1동
3030000,1.9623030074075e+18,1962-01-25,,1,영업/정상,5,영업개시전,,,,,00024644426,2861.0,,서울특별시 성동구 성수동2가 335번지,서울특별시 성동구 성수이로 32-15 (성수동2가),04776,뚝도시장,2024-12-11 7:47,U,03:00.0,시장,204775.366,448395.5878,,127.0545096,37.5388548,성수2가1동
3090000,2.0243090185075e+18,2024-07-08,,1,영업/정상,1,정상영업,,,,,02-2006-2364,292.8,,서울특별시 도봉구 창동 297-16,서울특별시 도봉구 해등로12길 3 (창동),01402,GS THE FRESH 창동점,2024-08-06 9:49,U,08:00.0,구분없음,203589.0336,461254.3494,,127.0414722,37.6536634,창5동
3070000,2.0253070299075e+18,2025-01-15,,1,영업/정상,5,영업개시전,,,,,02-2006-2364,329.0,,서울특별시 성북구 보문동2가 79 신한은행보문동지점,"서울특별시 성북구 보문로 121, 신한은행보문동지점 1층 일부 (보문동2가)",02871,GS THE FRESH 보문역사거리점,2025-01-22 18:08,U,04:00.0,그 밖의 대규모점포,201572.0413,453729.4578,,127.0185979,37.5858692,보문동
3040000,2.0243040190075e+18,2024-07-04,,1,영업/정상,5,영업개시전,,,,,02-2006-2364,162.28,,서울특별시 광진구 능동 234-1,"서울특별시 광진구 천호대로112길 25, 1층 (능동)",04986,GS THE FRESH 광진능동점,2024-08-12 8:54,U,04:00.0,구분없음,207108.6724,450297.0667,,127.0812509,37.5549228,능동
3200000,2.0243200225075e+18,2024-07-25,,1,영업/정상,5,영업개시전,,,,,02-0000-0000,255.1,,서울특별시 관악구 신림동 240-3,,,GS THE FRESH 관악신림점,2024-10-10 13:06,U,02:00.0,구분없음,194498.3697,440896.05,,126.9386007,37.4702372,대학동
3160000,2.0203160159075e+18,2020-06-26,,1,영업/정상,1,정상영업,,,,,02-323-0456,49220.79,,서울특별시 구로구 구로동 573,서울특별시 구로구 구로중앙로 152 (구로동),08292,이랜드리테일 NC구로점,2024-12-13 10:31,U,05:00.0,복합쇼핑몰,189570.3609,444336.0513,,126.882844,37.501188,구로5동
3000000,2.0053000076075e+18,20050127,,1,영업/정상,1,정상영업,,,,,0222785356,,,   호   ,,,종로세운상가,2007-07-21 10:27,I,59:59.0,대형마트,,,,,,
3000000,2.0073000101075e+18,20070704,,1,영업/정상,1,정상영업,,,,,02 7435390,9370.53,,서울특별시 종로구 인의동 48번지 2호,"서울특별시 종로구 종로 183 (인의동, 효성주얼리시티)",03130,효성주얼리시티,2021-05-02 13:31,U,40:00.0,그 밖의 대규모점포,199812.6096,452132.6483,대규모점포,126.9990685,37.5724941,종로1.2.3.4가동
3070000,2.0223070286075e+18,2022-04-18,,1,영업/정상,5,영업개시전,,,,,02-2006-2678,186.6,,서울특별시 성북구 길음동 508-16,"서울특별시 성북구 숭인로8길 80, 롯데캐슬클라시아 상가 101~104호 (길음동)",02730,GS THE FRESH 성북클라시아점,2025-01-22 18:09,U,04:00.0,그 밖의 대규모점포,202226.3785,456194.3524,,127.0271681,37.6090526,길음2동
3140000,2.0253140272075e+18,2025-01-20,,1,영업/정상,5,영업개시전,,,,,,258.0,,서울특별시 양천구 목동 547-12,서울특별시 양천구 목동중앙본로 95 (목동),07953,GS THE FRESH 양천목2동점,2025-01-20 16:53,I,02:00.0,구분없음,188456.4864,449112.8909,,126.8701813,37.5442205,목2동
3050000,2.0253050210075e+18,2025-01-20,,1,영업/정상,5,영업개시전,,,,,02-2006-2364,216.0,,서울특별시 동대문구 이문동 257-42 래미안라그란데아파트 F동 101~4호,"서울특별시 동대문구 이문로35길 12, F동 101~4호 (이문동, 래미안라그란데아파트)",02404,GS THE FRESH 이문라그란데점,2025-01-20 16:08,I,02:00.0,구분없음,205249.2654,455308.6518,,127.0602571,37.600078,이문1동
3070000,2.0123070189075e+18,2012-05-21,,1,영업/정상,1,정상영업,,,,,02-921-8545,215.0,136-087,서울특별시 성북구 보문동7가 25번지 1호,서울특별시 성북구 보문로 61 (보문동7가),136-087,홈플러스익스프레스 보문점,2025-01-22 18:10,U,04:00.0,그 밖의 대규모점포,201826.0023,453162.3763,,127.0214676,37.5807726,보문동
3070000,2.0123070189075e+18,2012-05-21,,1,영업/정상,1,정상영업,,,,,02 9428545,189.0,136-732,서울특별시 성북구 길음동 1285번지 두산아파트상가,서울특별시 성북구 길음로13길 22 (길음동),136-732,홈플러스익스프레스 길음점,2025-01-22 18:10,U,04:00.0,그 밖의 대규모점포,201592.9913,456382.9661,,127.0188371,37.6097692,길음1동
3000000,2.0073000129075e+18,20070907,,1,영업/정상,1,정상영업,,,,,763-0181,3393.77,,서울특별시 종로구 창신동 23번지 76호 브라운스톤 창신,"서울특별시 종로구 지봉로 81 (창신동, 브라운스톤 창신)",03095,브라운스톤 창신상가,2019-01-31 14:46,U,40:00.0,그 밖의 대규모점포,201258.0627,452787.1328,준대규모점포,127.0137387,37.5768497,창신3동
3000000,1.9913000076075e+18,19910731,,1,영업/정상,1,정상영업,,,,,0222620209,55081.94,110784,서울특별시 종로구 종로6가 289번지 3 호,서울특별시 종로구 종로 266 (종로6가),110784,동대문종합시장,2021-07-08 9:20,U,40:00.0,그 밖의 대규모점포,200717.749,452011.8651,대규모점포,127.0090362,37.5699809,종로5.6가동
3000000,2.0033000076075e+18,20031020,,1,영업/정상,1,정상영업,,,,,0222770114,4612.66,110126,서울특별시 종로구 종로6가 289번지 57호,서울특별시 종로구 종로 272 (종로6가),110126,동대문종합시장 신관,2017-06-09 14:48,I,59:59.0,그 밖의 대규모점포,200647.0133,452054.7649,대규모점포,127.0090362,37.5699809,종로5.6가동
3000000,2.0143000169075e+18,19871030,,1,영업/정상,1,정상영업,,,,,027644766,3660.0,,,서울특별시 종로구 종로44길 14 (창신동),110842,동문시장,2021-02-03 7:59,U,40:00.0,시장,200908.3984,452025.3465,대규모점포,127.0111345,37.5705155,창신1동
3240000,2.0253240289075e+18,2025-01-23,,1,영업/정상,5,영업개시전,,,,,02-2290-5996,200.64,,서울특별시 강동구 둔촌동 451-1,,,롯데슈퍼 강동둔촌점,2025-01-23 15:27,I,05:00.0,구분없음,212502.0584,447693.2204,,127.142252,37.5314035,둔촌2동
3000000,2.0103000129075e+18,2010-02-18,,1,영업/정상,1,정상영업,,,,,3413-0276,8390.2,110-410,서울특별시 종로구 인의동 112번지 2호,서울특별시 종로구 창경궁로 109 (인의동),110-410,세운스퀘어,2024-10-14 10:32,U,07:00.0,그 밖의 대규모점포,199670.9799,452221.775,,126.9971776,37.5728098,종로1.2.3.4가동
3000000,2.0033000129075e+18,20030304,,1,영업/정상,1,정상영업,,,,,2267-0291,16128.75,110833,서울특별시 종로구 예지동 6번지 1호,,,광장주식회사,2007-08-01 17:39,I,59:59.0,시장,199837.4143,451974.1285,,126.9989495,37.5700678,종로1.2.3.4가동
3000000,2.0113000129075e+18,2011-12-20,,1,영업/정상,1,정상영업,,,,,027379994,432.9,110-061,서울특별시 종로구 신문로1가 24번지  고려빌딩 1층,"서울특별시  새문안로 91, 1층 (고려빌딩)",110-796,홈플러스(주)익스프레스 광화문점,2024-04-01 18:06,U,03:00.0,복합쇼핑몰,197700.034,452022.5035,,126.9747578,37.5704982,사직동
3010000,2.0173010130075e+18,20171031,,1,영업/정상,1,정상영업,,,,,02-2006-3215,276.24,,,"서울특별시 중구 만리재로 175, 401동 9,10,11호 (만리동2가)",04500,지에스수퍼마켓 중구만리점,2018-01-23 13:25,I,59:59.0,구분없음,,,준대규모점포,126.9631642,37.5549829,중림동
3010000,2.0213010166075e+18,20210716,,1,영업/정상,1,정상영업,,,,,02-3452-2379,8767.97,,서울특별시 중구 남대문로2가 9-1,,,센터포인트 명동,2022-05-10 10:26,U,02:00.0,쇼핑센터,198401.7013,451374.3122,,126.9827025,37.5646622,명동
3010000,2.0023010071075e+18,19621102,,1,영업/정상,1,정상영업,,,,,757 3541,14330.0,,,서울특별시 중구 퇴계로85길 22 (황학동),04576,서울중앙시장,2020-01-14 16:58,U,40:00.0,그 밖의 대규모점포,201680.0675,451610.9622,대규모점포,127.0198064,37.566799,황학동
3070000,2.0193070216075e+18,20190529,,1,영업/정상,1,정상영업,,,,,02-912-9110,4612.41,,"서울특별시 성북구 길음동 535번지8호, 535번지26호, 540번지2호",,,길음시장,2019-05-29 17:30,I,20:59.0,그 밖의 대규모점포,,,대규모점포,127.0227865,37.6039452,길음1동
3000000,2.0043000076075e+18,20040430,,1,영업/정상,1,정상영업,,,,,02 3973445,4674.66,110714,서울특별시 종로구 종로1가 1번지,서울특별시 종로구 종로 1 (종로1가),110714,종로1번지아케이트,2021-04-08 16:23,U,40:00.0,복합쇼핑몰,197993.9046,452032.9586,대규모점포,126.9780819,37.5705901,종로1.2.3.4가동
3000000,2.0043000076075e+18,20040430,,1,영업/정상,1,정상영업,,,,,02 3995591,,,서울특별시 종로구 서린동 33호   ,,,영풍문고,2007-07-21 10:27,I,59:59.0,대형마트,198351.8187,451921.603,,126.982132,37.5695814,종로1.2.3.4가동
3000000,2.0043000076075e+18,20040630,,1,영업/정상,1,정상영업,,,,,0236760177,,,서울특별시 종로구 창신동 436번지 79  호   ,,,동대문신발도매상가,2007-07-21 10:27,I,59:59.0,그 밖의 대규모점포,,,,127.0125986,37.5708168,창신1동
3000000,2.0203000202075e+18,19710325,,1,영업/정상,1,정상영업,,,,19710325,,1313.0,,서울특별시 종로구 숭인동 206-9 신설종합시장 숭인동,"서울특별시 종로구 난계로27길 51, 신설종합시장 숭인동 (숭인동)",03117,신설종합시장,2020-07-22 14:14,I,23:15.0,시장,201727.6708,452264.4202,대규모점포,127.0203594,37.5726722,숭인2동
3000000,2.0213000202075e+18,19871030,,1,영업/정상,1,정상영업,,,,,2234-7151,1313.0,,서울특별시 종로구 숭인동 206-9 신설종합시장,"서울특별시 종로구 난계로27길 51, 신설종합시장 (숭인동)",03117,신설종합시장(주),2021-02-03 8:15,U,40:00.0,그 밖의 대규모점포,201727.6708,452264.4202,대규모점포,127.0203594,37.5726722,숭인2동
3010000,1.9703010130075e+18,1970-01-29,,1,영업/정상,1,정상영업,,,,,02-2269-1967,15144.0,,,"서울특별시 중구 청계천로 260-9 (을지로6가, 통일의류종합상가)",04563,통일상가,2024-04-03 17:07,U,05:00.0,그 밖의 대규모점포,200530.3601,451852.1495,,127.00676,37.5690813,광희동
3010000,1.9643010100075e+18,1964-10-13,,1,영업/정상,1,정상영업,,,,,02-753-2805,53845.06,100-060,서울특별시 중구 남창동 49번지,서울특별시 중구 남대문시장4길 21 (남창동),100-060,서울남대문시장,2024-11-19 9:51,U,01:00.0,그 밖의 대규모점포,197982.9966,450791.0739,,126.9779413,37.5594165,회현동
3010000,1.9683010100075e+18,19960704,,1,영업/정상,1,정상영업,,,,,02-2232-3608,6140.0,,,서울특별시 중구 마장로 30 (신당동),100886,팀204,2019-05-14 8:46,U,40:00.0,그 밖의 대규모점포,201096.6813,451715.8304,대규모점포,127.013206,37.5677232,신당동
3010000,1.9713010071075e+18,19711230,,1,영업/정상,1,정상영업,,,,,0222699891,10269.89,,서울특별시 중구 충무로4가 120번지 3   호,서울특별시 중구 퇴계로 217 (충무로4가),,진양상가,2016-04-10 15:47,I,59:59.0,그 밖의 대규모점포,199571.5995,451124.8514,대규모점포,126.9959435,37.5624139,광희동
3010000,1.9773010130075e+18,19770623,,1,영업/정상,1,정상영업,,,,,02-778-4611,9578.0,,,서울특별시 중구 삼일대로 363 (장교동),100760,상제리제상가,2020-04-30 16:07,U,40:00.0,그 밖의 대규모점포,198744.4332,451677.0651,대규모점포,126.9870535,37.5671779,명동
3010000,1.9803010071075e+18,19801016,,1,영업/정상,1,정상영업,,,,,0222384914,4203.03,,서울특별시 중구 신당동 776호,서울특별시 중구 마장로 19 (신당동),,(주)에리어식스,2015-01-30 15:14,I,59:59.0,그 밖의 대규모점포,200989.6866,451762.2615,대규모점포,127.0120037,37.5681513,신당동
3010000,1.9943010100075e+18,20090908,,1,영업/정상,1,정상영업,,,,,2236-8027,4097.54,100430,서울특별시 중구 흥인동 3번지 4호,서울특별시 중구 다산로 274 (흥인동),,우일타운,2016-04-20 17:57,I,59:59.0,전문점,201390.6235,451682.9244,대규모점포,127.0166305,37.5678075,신당동
3010000,2.0093010100075e+18,19720918,,1,영업/정상,1,정상영업,,,,,2278-5191,10041.58,100194,서울특별시 중구 을지로4가 9번지 6호,서울특별시 중구 을지로 157 (을지로4가),,대림상가,2018-04-25 13:02,I,59:59.0,그 밖의 대규모점포,199534.3297,451608.2229,대규모점포,126.995515,37.5668659,을지로동
3010000,2.0143010130075e+18,19900604,,1,영업/정상,1,정상영업,,,,,02-2232-2000,4448.0,,,서울특별시 중구 마장로1길 28 (신당동),100887,아트프라자,2020-11-03 17:17,U,40:00.0,그 밖의 대규모점포,201070.9794,451874.6375,대규모점포,127.0128359,37.5691982,신당동
3010000,2.0143010130075e+18,20000707,,1,영업/정상,1,정상영업,,,,,02-2256-3500,6954.85,,,서울특별시 중구 다산로 32 (신당동),100754,남산타운5상가,2015-01-30 14:59,I,59:59.0,그 밖의 대규모점포,200984.7137,449703.2398,대규모점포,127.0097435,37.5500494,약수동
3010000,2.0103010100075e+18,2006-10-23,,1,영업/정상,1,정상영업,,,,,02-2230-8200,8119.0,100-451,서울특별시 중구 신당1동 213번지 8호,서울특별시 중구 마장로1길 22 (신당동),,올레오,2023-03-10 13:30,U,02:00.0,쇼핑센터,201040.3526,451852.1426,,127.0136597,37.5690698,신당동
3010000,2.0143010130075e+18,20000707,,1,영업/정상,1,정상영업,,,,,02-2256-3500,5268.33,,,서울특별시 중구 다산로 32 (신당동),100754,남산타운2상가,2016-04-10 18:30,I,59:59.0,그 밖의 대규모점포,200984.7137,449703.2398,대규모점포,127.0097435,37.5500494,약수동
3010000,2.0143010130075e+18,19960831,,1,영업/정상,1,정상영업,,,,,02-2073-5111,33008.72,,,서울특별시 중구 장충단로 13-20 (을지로6가),100851,현대시티타워,2017-05-08 13:51,I,59:59.0,쇼핑센터,,,대규모점포,,,
3010000,2.0143010130075e+18,20060317,,1,영업/정상,1,정상영업,,,,,02-2079-0950,4944.51,,,서울특별시 중구 퇴계로 123 (충무로2가),100861,하이해리엇,2020-04-30 15:47,U,40:00.0,그 밖의 대규모점포,198636.2504,451005.7216,대규모점포,126.9853496,37.5612886,명동
3010000,2.0123010100075e+18,1981-10-27,,1,영업/정상,1,정상영업,,,,1981-10-27,0222526744,9629.48,,,서울특별시 중구 마장로 13 (신당동),100-837,제일평화시장,2023-05-08 10:26,U,06:00.0,그 밖의 대규모점포,200938.5281,451798.0031,,127.011383,37.5685731,신당동
3010000,2.0113010100075e+18,19700129,,1,영업/정상,1,정상영업,,,,,02-2269-1969,15144.0,100726,서울특별시 중구 을지로6가 17번지,서울특별시 중구 장충단로13길 20 (을지로6가),100726,통일상가,2015-01-29 11:06,I,59:59.0,그 밖의 대규모점포,200613.5103,451817.5154,대규모점포,127.0077487,37.5686422,광희동
3010000,2.0143010130075e+18,2014-01-10,,1,영업/정상,1,정상영업,,,,,02-2006-2156,492.56,,,서울특별시 중구 다산로 32 (신당동),100-450,(주)지에스리테일 남산타운점,2023-08-07 17:12,U,09:00.0,구분없음,200750.4551,449638.8243,,127.0097435,37.5500494,약수동
3010000,2.0123010100075e+18,20121227,,1,영업/정상,1,정상영업,,,,20130118,02-7262500,11576.19,100162,서울특별시 중구 봉래동2가 122번지 11호,서울특별시 중구 한강대로 405 (봉래동2가),,롯데아울렛 서울역점,2012-12-27 14:38,I,59:59.0,쇼핑센터,197230.2061,450446.6844,대규모점포,126.9695857,37.5582052,회현동
3010000,2.0123010100075e+18,19990901,,1,영업/정상,1,정상영업,,,,20130118,02-390-4015,11576.19,100162,서울특별시 중구 봉래동2가 120번지 11호,서울특별시 중구 한강대로 405 (봉래동2가),100162,롯데아울렛 서울역점,2022-02-10 9:34,U,40:00.0,쇼핑센터,197364.6268,450397.3696,대규모점포,126.9695857,37.5582052,회현동
3010000,2.0143010130075e+18,19980811,,1,영업/정상,1,정상영업,,,,,02-3393-1500,17736.37,100762,서울특별시 중구 을지로6가 18번지 185호,서울특별시 중구 장충단로 263 (을지로6가),100762,밀리오레,2017-07-05 14:08,I,59:59.0,그 밖의 대규모점포,200664.5829,451781.8684,대규모점포,127.0098288,37.5692615,광희동
3010000,2.0143010130075e+18,19761102,,1,영업/정상,1,정상영업,,,,,02-6365-5959,9316.94,,,서울특별시 중구 남대문로 30 (남창동),100804,굳앤굳 디자이너월드,2019-04-08 15:14,U,40:00.0,그 밖의 대규모점포,198079.6943,450952.1745,대규모점포,126.9790645,37.5608374,회현동
3010000,2.0023010071075e+18,19801220,,1,영업/정상,1,정상영업,,,,,3455-3721,6020.32,,서울특별시 중구 남창동 51번지 1호,,,숭례문상가,2016-04-10 17:13,I,59:59.0,그 밖의 대규모점포,197831.0027,450794.3148,대규모점포,126.9762306,37.559432,회현동
3110000,2.0023110088075e+18,20020409,,1,영업/정상,1,정상영업,,,,,02-389-1100,5042.9,,서울특별시 은평구 불광동 311번지 13호,서울특별시 은평구 통일로 856 (불광동),,메트로,2014-10-14 9:06,I,59:59.0,쇼핑센터,192998.2022,457479.9952,대규모점포,126.9210413,37.6197104,불광2동
3010000,2.0023010071075e+18,1978-12-22,,1,영업/정상,1,정상영업,,,,,02-759-6550,7676.86,,서울특별시 중구 소공동 1번지,"서울특별시 중구 을지로 30 (소공동, 롯데호텔)",04533,호텔롯데아케이드,2023-12-06 13:50,U,08:00.0,그 밖의 대규모점포,198259.6536,451392.1982,,126.9810887,37.5648228,소공동
3010000,2.0023010071075e+18,20020612,,1,영업/정상,1,정상영업,,,,,02-2250-2002,9067.72,,서울특별시 중구 신당동 193번지 3호,서울특별시 중구 마장로 40 (신당동),100837,에이피엠패션몰,2021-05-11 10:16,U,40:00.0,그 밖의 대규모점포,201031.4794,451759.2624,대규모점포,127.0147835,37.5691585,신당동
3010000,2.0193010166075e+18,20191017,,1,영업/정상,1,정상영업,,,,,02-2264-8511,3778.41,,서울특별시 중구 산림동 207번지 1호 세운청계상가,"서울특별시 중구 청계천로 160, 세운청계상가 (산림동)",04545,청계상가,2019-10-17 16:09,I,22:53.0,그 밖의 대규모점포,199521.2008,451751.4241,대규모점포,126.9953665,37.5680551,을지로동
3010000,2.0023010071075e+18,20020722,,1,영업/정상,1,정상영업,,,,,6388-1100,13941.72,100951,서울특별시 중구 을지로6가 18번지 35호,서울특별시 중구 장충단로 253 (을지로6가),100951,헬로우에이피엠,2014-11-27 9:28,I,59:59.0,그 밖의 대규모점포,200649.7767,451689.7852,대규모점포,127.0098288,37.5692615,광희동
3010000,2.0123010100075e+18,2012-08-31,,1,영업/정상,1,정상영업,,2024-09-06,2024-09-26,2024-09-27,02-6262-4202,17356.62,100-196,서울특별시 중구 을지로6가 21번지 31호,서울특별시 중구 을지로 264 (을지로6가),100-196,던던 동대문점,2024-10-16 13:25,U,08:00.0,쇼핑센터,200548.0388,451497.6266,,127.0074105,37.5658045,광희동
3010000,2.0053010071075e+18,1983-06-03,,1,영업/정상,1,정상영업,,,,,0222328082,12192.28,100-451,서울특별시 중구 신당1동 217번지 91호,서울특별시 중구 청계천로 334 (신당동),,청평화시장,2024-04-01 9:12,U,03:00.0,그 밖의 대규모점포,201250.877,451908.7738,,127.0115766,37.5694444,신당동
3010000,2.0083010100075e+18,2008-06-26,,1,영업/정상,1,정상영업,,,,,02-2290-1234,20144.48,100-899,서울특별시 중구 황학동 2545번지,서울특별시 중구 청계천로 400-0 (황학동),100-899,주식회사 이마트 청계천점,2024-11-19 9:48,U,01:00.0,대형마트,201823.909,452076.8187,,127.0214096,37.5709976,황학동
3010000,2.0063010071075e+18,20060414,,1,영업/정상,1,정상영업,,,,,02 22320040,18815.13,,서울특별시 중구 신당동 193번지 2 호,서울특별시 중구 다산로 293 (신당동),,디오트,2022-08-05 13:57,U,07:00.0,그 밖의 대규모점포,201236.0315,451872.4094,,127.0147835,37.5691585,신당동
3010000,2.0083010100075e+18,20080718,,1,영업/정상,1,정상영업,,,,,02-2048-8231,27653.82,100440,서울특별시 중구 황학동 2545번지,서울특별시 중구 청계천로 400 (황학동),,베네치아메가몰,2017-08-03 13:28,I,59:59.0,그 밖의 대규모점포,201823.909,452076.8187,대규모점포,127.0214096,37.5709976,황학동
3010000,2.0083010100075e+18,20080827,,1,영업/정상,1,정상영업,,,,,02-318-8322,5835.93,,서울특별시 중구 명동2가 31번지 1호,"서울특별시 중구 명동8길 27 (명동2가, 엠 플라자)",04536,엠플라자(M plaza),2016-07-04 14:41,I,59:59.0,쇼핑센터,198619.3882,451135.7403,대규모점포,126.9851547,37.5625099,명동
3010000,2.0083010100075e+18,20080916,,1,영업/정상,1,정상영업,,,,,02-2118-8700,40302.01,100729,서울특별시 중구 을지로6가 18번지 21호 굿모닝시티쇼핑몰,"서울특별시 중구 장충단로 247 (을지로6가,굿모닝시티쇼핑몰)",,굿모닝시티 쇼핑몰,2022-02-14 15:01,U,40:00.0,쇼핑센터,200573.6413,451621.0365,대규모점포,127.0098288,37.5692615,광희동
3010000,2.0093010100075e+18,1962-02-23,,1,영업/정상,1,정상영업,,,,1962-02-23,02-2265-3531,24483.79,100-726,서울특별시 중구 을지로6가 17번지 48호,서울특별시 중구  청계천로  274 (을지로6가),100-726,평화시장,2024-11-19 9:50,U,01:00.0,그 밖의 대규모점포,200644.6738,451908.7,,127.0077487,37.5686422,광희동
3010000,2.0093010100075e+18,20020115,,1,영업/정상,1,정상영업,,,,,3783-5204,21481.63,100810,서울특별시 중구 명동2가 83번지 5호,서울특별시 중구 명동길 14 (명동2가),,눈스퀘어,2016-06-15 17:43,I,59:59.0,그 밖의 대규모점포,198418.7417,451237.1686,대규모점포,126.9828708,37.5636172,명동
3120000,1.9873120093075e+18,19871024,,1,영업/정상,1,정상영업,,,,,373-4914,1850.0,,,서울특별시 서대문구 수색로2길 47 (남가좌동),120805,서중시장,2012-03-30 10:14,I,59:59.0,시장,192517.6402,452143.4915,대규모점포,,,
3020000,2.0043020074075e+18,20040921,,1,영업/정상,1,정상영업,,,,,02-2012-0101,106290.33,,서울특별시 용산구 한강로3가 40번지 999호,서울특별시 용산구 한강대로23길 55 (한강로3가),140780,아이파크몰(I PARK MALL),2022-08-11 9:29,U,03:00.0,쇼핑센터,196762.0774,447480.0396,,126.9591166,37.524256,한강로동
3020000,2.0123020095075e+18,20120323,,1,영업/정상,1,정상영업,,,,,02-793-9633,181.89,,서울특별시 용산구 한남동 631번지 5호 허준빌딩,"서울특별시 용산구 대사관로34길 26, 허준빌딩 1층 (한남동)",04402,롯데슈퍼 한남점(가맹점),2019-03-19 14:40,U,40:00.0,구분없음,200431.1456,447763.4142,준대규모점포,127.0056784,37.5325795,한남동
3020000,1.9853020074075e+18,19850701,,1,영업/정상,1,정상영업,,,,,,,,서울특별시 용산구 한강로1가 191호   ,,,국제센터아케이드,2007-07-21 10:15,I,59:59.0,그 밖의 대규모점포,197646.514,447909.0707,,126.974171,37.5334332,한강로동
3020000,1.9933020074075e+18,19930413,,1,영업/정상,1,정상영업,,,,,02 7037091,,,서울특별시 용산구 한강로2가 413호   ,서울특별시 용산구 청파로 113-12 (한강로2가),,(주)전자타운,2007-07-21 10:15,I,59:59.0,그 밖의 대규모점포,196775.6399,447984.6345,,126.9643092,37.5341078,한강로동
3020000,2.0043020074075e+18,20041222,,1,영업/정상,1,정상영업,,,,,02  799 7114,6876.34,,서울특별시 용산구 한강로2가 191호,서울특별시 용산구 한강대로 92 (한강로2가),140702,LS Avenue,2012-10-15 9:45,I,59:59.0,그 밖의 대규모점포,197099.3815,447328.5488,대규모점포,126.9679789,37.5282018,한강로동
3020000,2.0083020095075e+18,19681109,,1,영업/정상,1,정상영업,,,,,02)714-0151,1209.2,140140,서울특별시 용산구 서계동 260번지 1호,서울특별시 용산구 효창원로 270 (서계동),140830,만리시장,2012-03-13 13:09,I,59:59.0,시장,196716.1659,449892.5577,대규모점포,126.9636272,37.5513004,청파동
3180000,2.0013180076075e+18,19871127,,1,영업/정상,1,정상영업,,,,,0226340536,,,서울특별시 영등포구 영등포동5가 20호   ,,,삼구시장,2007-07-07 12:24,I,59:59.0,그 밖의 대규모점포,,,,126.9058486,37.5203407,영등포동
3020000,2.0083020095075e+18,19870213,,1,영업/정상,1,정상영업,,,,,02-3786-6352,4845.26,140200,서울특별시 용산구 이태원동 119번지 25호,서울특별시 용산구 이태원로 179 (이태원동),,해밀톤 쇼핑몰,2018-09-28 14:56,U,59:59.0,쇼핑센터,199363.5958,448050.9263,대규모점포,126.9916333,37.5355805,이태원1동
3020000,2.0083020095075e+18,19871031,,1,영업/정상,1,정상영업,,,,,02  707 4628,62555.57,140013,서울특별시 용산구 한강로3가 16번지 9호,서울특별시 용산구 청파로 74 (한강로3가),,(주)에스와이에스홀딩스,2014-10-24 10:25,I,59:59.0,전문점,196370.7464,447841.6988,대규모점포,126.9545119,37.5301161,한강로동
3070000,2.0083070134075e+18,20080620,,1,영업/정상,1,정상영업,,,,,915-4230,3583.0,136143,서울특별시 성북구 장위동 60번지 1호,,,삼익아파트상가,2008-06-20 19:07,I,59:59.0,그 밖의 대규모점포,205020.6087,456783.7666,,127.057659,37.6133842,장위3동
3020000,2.0083020095075e+18,19880623,,1,영업/정상,1,정상영업,,,,,02)702-3411,8382.6,140113,서울특별시 용산구 원효로3가 51번지 30호,서울특별시 용산구 청파로 77 (원효로3가),140849,원효전자상가,2013-03-21 9:39,I,59:59.0,전문점,196385.232,447938.1925,대규모점포,126.9602461,37.534699,원효로2동
3020000,2.0083020095075e+18,19851112,,1,영업/정상,1,정상영업,,,,,02)795-7501,3327.67,140026,서울특별시 용산구 용산동6가 69번지 167호,서울특별시 용산구 이촌로 352 (용산동6가),,신동아 쇼핑센터,2008-04-29 21:27,I,59:59.0,쇼핑센터,198622.8926,446114.1552,,126.9877515,37.5204812,서빙고동
3020000,2.0053020074075e+18,19930413,,1,영업/정상,1,정상영업,,,,,7037091,10634.18,,서울특별시 용산구 한강로2가 413호,서울특별시 용산구 청파로 113-12 (한강로2가),,전자타운,2014-10-24 10:37,I,59:59.0,전문점,196775.6399,447984.6345,대규모점포,126.9643092,37.5341078,한강로동
3020000,2.0063020074075e+18,19600217,,1,영업/정상,1,정상영업,,,,,02  794 5682,574.0,,서울특별시 용산구 이태원동 56번지 9호,서울특별시 용산구 이태원로14길 6 (이태원동),,이태원시장,2012-03-30 14:02,I,59:59.0,시장,199051.1588,447953.6017,대규모점포,126.9895859,37.5340462,이태원1동
3020000,2.0203020150075e+18,20200813,,1,영업/정상,1,정상영업,,,,,02-2689-0035,8500.52,,서울특별시 용산구 한강로3가 2-8,"서울특별시 용산구 청파로 100, 12동 2층 (한강로3가)",04372,(주)서부티엔디,2020-08-13 9:12,I,23:13.0,전문점,196605.5116,447841.2701,대규모점포,126.9623836,37.5328095,한강로동
3030000,2.0143030103075e+18,20141209,,1,영업/정상,1,정상영업,,,,,"2207-9991, 6454-6301",13996.64,,,서울특별시 성동구 왕십리로 241 (행당동),133866,파크에비뉴 엔터식스 한양대점,2019-09-20 17:52,U,40:00.0,복합쇼핑몰,203523.0,450411.0,대규모점포,127.0401196,37.5562273,사근동
3030000,2.0113030103075e+18,20110705,,1,영업/정상,1,정상영업,,,,20110705,22135635,0.0,133170,서울특별시 성동구 용답동 49번지 5호,,,성동용답상가시장,2012-06-08 14:55,I,59:59.0,시장,204566.0464,451260.9331,대규모점포,127.052437,37.563771,용답동
3020000,2.0063020074075e+18,20060825,,1,영업/정상,1,정상영업,,,,,02)2012-0101,17898.53,,서울특별시 용산구 한강로3가 40번지 999호,서울특별시 용산구 한강대로23길 55 (한강로3가),140780,아이파크(I PARK)백화점,2022-08-11 9:34,U,03:00.0,백화점,196762.0774,447480.0396,,126.9591166,37.524256,한강로동
3150000,2.0123150145075e+18,2012-03-29,,1,영업/정상,1,정상영업,,,,,000220645601,461.2,157-703,서울특별시 강서구 내발산동 719번지 6호,서울특별시 강서구 강서로 267 (내발산동),157-280,롯데쇼핑(주)롯데슈퍼 우장산점,2023-05-15 14:02,U,07:00.0,그 밖의 대규모점포,185431.0666,449714.8138,,126.8358056,37.5506818,발산1동
3150000,2.0123150145075e+18,2012-03-29,,1,영업/정상,1,정상영업,,,,,000226635601,847.4,157-846,서울특별시 강서구 방화1동 187번지 1호,서울특별시 강서구 방화대로34길 83 (방화동),157-846,롯데쇼핑(주)롯데슈퍼 방화점,2023-05-15 14:01,U,07:00.0,그 밖의 대규모점포,184102.7825,452097.3701,,,,
3030000,1.9623030103075e+18,1962-01-21,,1,영업/정상,5,영업개시전,,,,,02  22525302,1156.0,133-805,서울특별시 성동구 금호동3가 332번지,서울특별시 성동구 독서당로 303-11 (금호동3가),133-805,금남시장,2024-12-11 7:46,U,03:00.0,시장,201939.2553,449589.2138,,127.0227349,37.5485708,금호2.3가동
3050000,2.0143050140075e+18,2008-08-06,,1,영업/정상,1,정상영업,,,,,2238-2600,2448.0,130-813,서울특별시 동대문구 신설동 109번지 5호,서울특별시 동대문구 천호대로4길 21 (신설동),130-813,서울풍물시장,2024-01-19 17:46,U,01:00.0,그 밖의 대규모점포,202186.4681,452282.6074,,127.0249697,37.5713616,용신동
3210000,2.0153210155075e+18,20150203,,1,영업/정상,1,정상영업,,,,,02-2145-8000,12066.12,,"서울특별시 서초구 서초동 1498번지 5호  (영업장 지하1층,지하2층)",,,롯데쇼핑(주) 롯데마트 서초점,2022-05-02 16:30,U,04:00.0,대형마트,200438.9929,443124.5944,,127.0047227,37.4906235,서초3동
3020000,2.0103020095075e+18,1985-11-12,,1,영업/정상,1,정상영업,,,,,709-7501,7470.17,,서울특별시 용산구 용산동6가 69-167 신동아쇼핑,"서울특별시 용산구 이촌로 352, 신동아쇼핑 (용산동6가)",04428,신동아쇼핑센터,2024-02-05 9:28,U,07:00.0,복합쇼핑몰,198622.8926,446114.1552,,126.9852079,37.5172474,서빙고동
3030000,2.0123030103075e+18,2012-02-14,,1,영업/정상,1,정상영업,,,,,3459-8000,264.3,133-858,서울특별시 성동구 왕십리2동 966번지 11호,서울특별시 성동구 왕십리로 333 (하왕십리동),133-020,홈플러스(주) 익스프레스 왕십리점,2024-03-28 14:11,U,00:00.0,구분없음,202806.0185,451160.356,,127.0321213,37.5629181,왕십리2동
3220000,2.0013220083075e+18,20000616,,1,영업/정상,1,정상영업,,,,,02 5312902,26532.0,,서울특별시 강남구 대치동 937호,서울특별시 강남구 도곡로 401 (대치동),135704,롯데백화점(강남점),2022-05-04 16:04,U,07:00.0,백화점,204669.5434,443873.6212,,127.0536066,37.4970458,대치4동
3020000,2.0063020074075e+18,19871126,,1,영업/정상,1,정상영업,,,,,02)718-7113,37901.41,,서울특별시 용산구 한강로2가 15번지 14호,"서울특별시 용산구 새창로 181 (한강로2가, 선인상가)",04371,선인상가,2022-10-07 14:43,U,09:00.0,전문점,196839.6417,447863.232,,126.9654128,37.5338904,한강로동
3030000,1.9803030103075e+18,19800905,,1,영업/정상,1,정상영업,,,,,02-2210-4100,0.0,,서울특별시 성동구 용답동 234번지 한국자동차매매센터,"서울특별시 성동구 자동차시장1길 70 (용답동, 장안평중고자동차시장)",04808,자동차매매센타,2019-04-30 17:44,U,40:00.0,전문점,205784.8688,450883.524,대규모점포,127.0662886,37.5602185,용답동
3030000,1.9983030103075e+18,19980803,,1,영업/정상,1,정상영업,,,,,02)2297-6205,4049.55,,서울특별시 성동구 행당동 347번지 행당동 대림아파트,"서울특별시 성동구 행당로 87, 행당동 대림아파트 (행당동)",04713,대림리빙프라자,2018-10-02 16:57,U,37:24.0,그 밖의 대규모점포,202326.503,450625.5842,대규모점포,127.0271181,37.5579143,행당2동
3030000,2.0053030074075e+18,19681207,,1,영업/정상,1,정상영업,,,,,02-464-2095,3225.0,133120,서울특별시 성동구 성수동2가 289번지 4호,서울특별시 성동구 아차산로7길 28 (성수동2가),,(주)인트램,2018-10-02 11:31,U,37:24.0,그 밖의 대규모점포,204830.9773,449477.4485,대규모점포,127.0561503,37.5492356,성수2가3동
3030000,2.0063030103075e+18,20060320,,1,영업/정상,1,정상영업,,,,,2281-4446,25910.0,133050,서울특별시 성동구 마장동 510번지 3호 일대,"서울특별시 성동구 마장로31길 40 (마장동,일대)",,마장축산물시장,2017-07-31 10:28,I,59:59.0,시장,203323.7878,451940.2054,,127.0393287,37.569702,마장동
3030000,2.0073030103075e+18,20070323,,1,영업/정상,1,정상영업,,,,,3395-9336,7717.09,133040,서울특별시 성동구 왕십리도선동 69번지,서울특별시 성동구 무학로6길 50 (도선동),,성동삼성쉐르빌상가,2014-10-12 17:05,I,59:59.0,그 밖의 대규모점포,203017.0215,451346.2811,대규모점포,127.0318022,37.5668189,왕십리도선동
3030000,1.9823030103075e+18,1982-10-16,,1,영업/정상,1,정상영업,,,,,2297-2484,0.0,,서울특별시 성동구 옥수동 220번지 1호 한남하이츠아파트,"서울특별시 성동구 독서당로 160, 한남하이츠아파트 (옥수동)",04736,한남하이츠상가,2023-12-07 15:08,U,09:00.0,구분없음,201181.599,448609.5881,,127.0141788,37.5397572,옥수동
3030000,2.0123030103075e+18,2012-02-24,,1,영업/정상,1,정상영업,,,,,2253-8542,578.96,133-807,서울특별시 성동구 금호동3가 1331번지,서울특별시 성동구 동호로 100 (금호동3가),133-751,홈플러스(주) 익프스레스 금호2점,2024-03-28 14:08,U,00:00.0,구분없음,201383.0237,449744.2805,,127.0164481,37.5499725,금호2.3가동
3030000,2.0123030103075e+18,2012-03-21,,1,영업/정상,1,정상영업,,,,,02-2292-8545,293.34,133-091,서울특별시 성동구 금호동1가 481번지 5호,서울특별시 성동구 행당로 6 (금호동1가),133-091,홈플러스(주) 익스프레스 금호점,2024-03-29 13:33,U,01:00.0,구분없음,201772.8071,450250.3664,,127.0209889,37.5546755,금호1가동
3030000,2.0003030103075e+18,2000-03-31,,1,영업/정상,1,정상영업,,,,,02)2281-7003,5873.69,,서울특별시 성동구 행당동 346번지 행당 한진타운 종합상가,"서울특별시 성동구 행당로 84, 행당 한진타운 종합상가 (행당동)",04717,한진종합상가,2024-01-22 16:10,U,04:00.0,그 밖의 대규모점포,202511.1429,450401.3037,,127.0292059,37.5558957,행당2동
3030000,2.0083030103075e+18,20080828,,1,영업/정상,1,정상영업,,,,,02-2200-6000,7960.0,,서울특별시 성동구 행당동 168번지 151호 왕십리민자역사,"서울특별시 성동구 왕십리광장로 17, 왕십리민자역사 (행당동)",04750,ENTER-6,2021-12-01 14:07,U,40:00.0,그 밖의 대규모점포,203321.5623,451001.8687,대규모점포,127.0380682,37.5636841,행당1동
3030000,2.0083030103075e+18,2008-06-27,,1,영업/정상,1,정상영업,,,,,02  22001234,11573.0,133-071,서울특별시 성동구 행당동 168번지 1호,서울특별시 성동구 왕십리광장로 17 (행당동),133-866,(주)이마트 왕십리점,2024-04-26 10:27,U,08:00.0,대형마트,203292.1518,451267.731,,127.0380682,37.5636841,행당1동
3050000,2.0113050140075e+18,20110907,,1,영업/정상,1,정상영업,,,,,02-2242-5611,769.5,130835,서울특별시 동대문구 장안동 94번지 27호 외1필지 예신프라자,서울특별시 동대문구 한천로46길 42 (장안동),130835,롯데쇼핑(주) 롯데슈퍼 장안점,2022-05-07 15:41,U,00:00.0,구분없음,206176.1786,453248.0972,,127.0698952,37.5808406,장안2동
3050000,2.0113050140075e+18,20110907,,1,영업/정상,1,정상영업,,,,,02-2248-7800,1701.2,130020,서울특별시 동대문구 전농동 10번지 외7필지 전농sk아파트 주상가동,"서울특별시 동대문구 사가정로 148 (전농동, SK아파트)",130769,롯데쇼핑(주) 롯데슈퍼 전농점,2022-05-07 15:43,U,00:00.0,구분없음,205271.7049,452706.8979,,127.0604664,37.5766546,전농2동
3050000,2.0103050100075e+18,20100811,,1,영업/정상,1,정상영업,,,,,02-3706-4710,10910.6,130851,서울특별시 동대문구 전농1동 591번지 53호,서울특별시 동대문구 왕산로 214 (전농동),130851,롯데쇼핑(주)롯데마트 청량리점,2022-10-20 10:20,U,02:00.0,대형마트,204081.2821,453187.3952,,127.0475792,37.5816912,전농1동
3040000,2.0013040073075e+18,19701223,,1,영업/정상,1,정상영업,,,,,02-463-7521,1524.1,,서울특별시 광진구 자양동 44번지 2호,서울특별시 광진구 뚝섬로 491 (자양동),143843,노룬산시장,2013-12-23 16:36,I,59:59.0,그 밖의 대규모점포,205663.0811,448250.3634,대규모점포,127.0644997,37.5369524,자양4동
3040000,2.0013040073075e+18,19710501,,1,영업/정상,1,정상영업,,,,,02-463-5611,6426.48,,서울특별시 광진구 자양동 6번지 20호,서울특별시 광진구 아차산로30길 39 (자양동),143841,조양시장,2017-12-08 10:38,I,59:59.0,그 밖의 대규모점포,205886.289,448517.3386,대규모점포,127.0684669,37.5398853,자양4동
3040000,2.0123040155075e+18,2012-03-06,,1,영업/정상,1,정상영업,,,,,024478545,274.4,143-898,서울특별시 광진구 중곡2동 157번지 1호,서울특별시 광진구 능동로 314 (중곡동),143-898,홈플러스(주)익스프레스 중곡점,2024-04-11 17:28,U,03:00.0,구분없음,207001.8723,450597.6149,,127.0800453,37.5576316,중곡2동
3040000,2.0013040073075e+18,19710508,,1,영업/정상,1,정상영업,,,,,02-467-0254,2107.8,,서울특별시 광진구 중곡동 229번지 5호,서울특별시 광진구 긴고랑로11길 11 (중곡동),143903,중곡제일시장,2012-01-04 17:05,I,59:59.0,그 밖의 대규모점포,207114.4989,451296.0494,대규모점포,127.0819286,37.5645949,중곡1동
3040000,2.0083040103075e+18,20080903,,1,영업/정상,1,정상영업,,,,,02-466-6767,3741.82,143150,서울특별시 광진구 군자동 503번지,서울특별시 광진구 광나루로 369 (군자동),143840,파크에비뉴,2012-01-04 11:10,I,59:59.0,그 밖의 대규모점포,206212.2443,449577.1749,대규모점포,127.0711001,37.5484467,군자동
3040000,2.0013040073075e+18,19770131,,1,영업/정상,1,정상영업,,,,,02 4441707,1137.92,,서울특별시 광진구 중곡동 79번지 13호,서울특별시 광진구 영화사로 12 (중곡동),143888,신성종합시장,2012-01-04 16:20,I,59:59.0,그 밖의 대규모점포,207747.894,450639.201,대규모점포,127.0881101,37.5584416,중곡4동
3040000,2.0013040073075e+18,19790716,,1,영업/정상,1,정상영업,,,,,02 4577480,2418.11,,서울특별시 광진구 자양동 602호,서울특별시 광진구 자양번영로6길 20 (자양동),143865,자양종합시장,2014-07-23 19:01,I,59:59.0,그 밖의 대규모점포,206686.3645,447752.4632,대규모점포,127.0764463,37.5319991,자양2동
3040000,2.0013040073075e+18,19980323,,1,영업/정상,1,정상영업,,,,,02-3424-0323,49840.0,,서울특별시 광진구 구의동 546번지 4호,서울특별시 광진구 광나루로56길 85 (구의동),143721,테크노-마트21,2018-09-06 15:42,U,59:59.0,그 밖의 대규모점포,208394.4164,448165.28,대규모점포,127.0935917,37.5339214,구의3동
3040000,2.0113040155075e+18,20111005,,1,영업/정상,1,정상영업,,,,,02-3437-8546,235.8,143888,서울특별시 광진구 중곡4동 93번지 2호,서울특별시 광진구 용마산로 10 (중곡동),143888,홈플러스익스프레스 중곡2점,2022-09-28 15:13,U,00:00.0,구분없음,207778.1165,450250.2556,,127.0890929,37.5549114,중곡4동
3040000,2.0063040073075e+18,2006-12-14,,1,영업/정상,1,정상영업,,,,,0220241234,11320.4,,서울특별시 광진구 자양동 227번지 7호,서울특별시 광진구 아차산로 272 (자양동),143-758,(주)이마트 자양점,2024-04-17 11:33,U,09:00.0,대형마트,206349.675,448396.9397,,127.0768462,37.5379001,자양3동
3040000,2.0013040073075e+18,1980-04-07,,1,영업/정상,1,정상영업,,,,,02-465-7965,2456.45,,서울특별시 광진구 화양동 10번지 1호,서울특별시 광진구 능동로13길 39 (화양동),143-914,한아름시장,2023-11-17 10:04,U,09:00.0,그 밖의 대규모점포,206107.7752,449029.3422,,127.0699118,37.543508,화양동
3040000,2.0113040155075e+18,20111004,,1,영업/정상,1,정상영업,,,,,02-469-1333,1162.0,143914,서울특별시 광진구 화양동 10번지 1호,서울특별시 광진구 능동로13길 39 (화양동),143914,(주)지에스리테일GS수퍼 광진화양점,2022-09-28 15:13,U,00:00.0,구분없음,206107.7752,449029.3422,,127.0699118,37.543508,화양동
3040000,2.0063040073075e+18,20060228,,1,영업/정상,1,정상영업,,,,,02-3436-0005,3004.13,,서울특별시 광진구 자양동 663번지 21  호,서울특별시 광진구 자양로5길 33 (자양동),143873,프라젠 스파,2013-12-26 14:29,I,59:59.0,그 밖의 대규모점포,207368.6245,447632.296,대규모점포,127.0827353,37.5306622,자양2동
3040000,2.0153040168075e+18,20150403,,1,영업/정상,1,정상영업,,,,,3677-7281,4037.2,,서울특별시 광진구 자양동 17번지 1호,서울특별시 광진구 아차산로 200 (자양동),05071,커먼그라운드,2016-11-28 11:17,I,59:59.0,그 밖의 대규모점포,205758.8167,448768.1614,대규모점포,127.0659608,37.5411571,자양4동
3040000,2.0013040073075e+18,19800618,,1,영업/정상,1,정상영업,,,,,02-467-5200,2135.53,,서울특별시 광진구 중곡동 229번지 15호,서울특별시 광진구 능동로47길 30 (중곡동),143903,광성시장,2012-01-04 14:42,I,59:59.0,그 밖의 대규모점포,207098.9948,451260.4457,대규모점포,127.0819286,37.5645949,중곡1동
3040000,2.0013040073075e+18,19901117,,1,영업/정상,1,정상영업,,,,,02 4543916,3625.18,,서울특별시 광진구 광장동 484호,서울특별시 광진구 광나루로 635 (광장동),143814,현대종합상가,2012-01-04 16:03,I,59:59.0,그 밖의 대규모점포,208644.8192,448711.7258,대규모점포,127.0986165,37.5406254,광장동
3040000,2.0013040073075e+18,19921105,,1,영업/정상,1,정상영업,,,,,02-454-7529,1707.82,,서울특별시 광진구 구의동 611호,서울특별시 광진구 광나루로56길 34 (구의동),143832,구의현대종합상가,2021-08-19 10:13,U,40:00.0,그 밖의 대규모점포,208403.7461,448490.2392,대규모점포,127.0958857,37.538632,구의3동
3050000,2.0033050082075e+18,2003-10-23,,1,영업/정상,1,정상영업,,,,,0221738121,12010.0,130-817,서울특별시 동대문구 용두동 33번지 1호,서울특별시 동대문구 천호대로 133 (용두동),130-817,홈플러스(주) 동대문점,2024-02-29 14:49,U,03:00.0,대형마트,203356.9574,452469.3002,,127.038825,37.5745215,용신동
3040000,2.0213040190075e+18,2021-06-08,,1,영업/정상,1,정상영업,,,,,024578045,3208.98,,서울특별시 광진구 구의동 66-25,서울특별시 광진구 광나루로39길 11 (구의동),04977,구의 자이르네 판매시설,2024-05-20 17:08,U,02:00.0,그 밖의 대규모점포,207775.8651,449252.3869,,127.0885492,37.5456656,구의2동
3040000,2.0013040073075e+18,1989-08-23,,1,영업/정상,1,정상영업,,,,,02-450-8832,3995.19,,서울특별시 광진구 구의동 546번지 1호,서울특별시 광진구 강변역로 50 (구의동),143-715,동서울터미널상가,2025-02-14 16:04,U,06:00.0,복합쇼핑몰,208201.9933,447967.2995,,127.0935917,37.5339214,구의3동
3040000,2.0013040073075e+18,19970130,,1,영업/정상,1,정상영업,,,,,02-3437-2572,5880.92,,서울특별시 광진구 구의동 631번지 1호,서울특별시 광진구 광나루로56길 63 (구의동),143761,프라임프라자상가,2012-01-04 15:34,I,59:59.0,그 밖의 대규모점포,208558.2866,448353.9052,대규모점포,127.0976327,37.5374022,구의3동
3040000,2.0123040155075e+18,20120329,,1,영업/정상,1,정상영업,,,,,02-458-8545,232.07,143822,서울특별시 광진구 구의3동 212번지 2호,서울특별시 광진구 아차산로 473 (구의동),143822,홈플러스익스프레스 구의2점,2022-09-28 15:12,U,00:00.0,구분없음,208261.7488,448701.6585,,127.0941124,37.5407137,구의3동
3050000,2.0113050100075e+18,20110315,,1,영업/정상,1,정상영업,,,,,02-840-3210,5746.45,130100,서울특별시 동대문구 장안동 580번지,서울특별시 동대문구 한천로 42 (장안동),130100,장안위더스빌,2014-10-29 16:21,I,59:59.0,그 밖의 대규모점포,205423.9695,451556.2106,대규모점포,127.0622143,37.566279,장안1동
3050000,2.0073050100075e+18,20070509,,1,영업/정상,1,정상영업,,,,,02 9070135,13762.35,130864,서울특별시 동대문구 제기동 1140번지 5호,서울특별시 동대문구 왕산로 117 (제기동),130864,불로장생타워,2022-02-18 16:30,U,40:00.0,전문점,203155.5049,452914.6075,대규모점포,127.0368522,37.5799258,제기동
3050000,2.0073050100075e+18,20060424,,1,영업/정상,1,정상영업,,,,,3299-4700,6986.87,130723,서울특별시 동대문구 용두동 787번지 동의보감타워,,,건강백화점 동의보감,2014-10-29 14:53,I,59:59.0,전문점,203258.3772,452834.0641,대규모점포,127.0376809,37.577822,용신동
3050000,2.0093050100075e+18,20090320,,1,영업/정상,1,정상영업,,,,,957-9090,8286.24,130081,서울특별시 동대문구 이문1동 292번지 10호 (주)이문종합상가 이문동웰츠타워,,,대규모점포 개설등록,2009-03-20 17:54,I,59:59.0,그 밖의 대규모점포,205396.3637,455131.6832,,127.0611378,37.5975955,이문1동
3050000,2.0003050082075e+18,19750905,,1,영업/정상,1,정상영업,,,,,0222453026,809.0,,서울특별시 동대문구 장안동 108-5,서울특별시 동대문구 한천로 190(장안동),02525,전곡시장,2021-12-04 15:29,U,40:00.0,시장,205987.3456,452845.2843,대규모점포,127.06858,37.5779032,장안2동
3050000,2.0003050082075e+18,19740711,,1,영업/정상,1,정상영업,,,,,02-966-6966,2178.0,,서울특별시 동대문구 휘경동 151-3,서울특별시 동대문구 휘경로 53(휘경동),02428,이경시장,2021-12-04 15:35,U,40:00.0,시장,204881.3132,454280.0406,대규모점포,127.0660394,37.5946237,휘경1동
3050000,2.0003050082075e+18,19720712,,1,영업/정상,1,정상영업,,,,,02 9647051,1774.0,130826,서울특별시 동대문구 이문동 292번지 10호,서울특별시 동대문구 이문로 136 (이문동),130826,이문제일시장,2021-12-04 14:40,U,40:00.0,시장,205396.3637,455131.6832,대규모점포,127.0611378,37.5975955,이문1동
3050000,2.0043050082075e+18,20040722,,1,영업/정상,1,정상영업,,,,,02  63700050,7753.13,130864,서울특별시 동대문구 제기동 892번지 71호,서울특별시 동대문구 왕산로 109 (제기동),130864,한솔동의보감,2015-04-22 14:23,I,59:59.0,전문점,203075.0985,452918.8365,대규모점포,127.0367934,37.5842079,제기동
3050000,2.0053050082075e+18,20050429,,1,영업/정상,1,정상영업,,,,,0222151000,11167.69,130840,서울특별시 동대문구 장안동 368번지 1호,서울특별시 동대문구 답십리로 288 (장안동),130840,(주)형지쇼핑 아트몰링 장안점,2017-11-22 16:23,I,59:59.0,그 밖의 대규모점포,206325.3494,452184.2102,대규모점포,127.0724172,37.5719306,장안2동
3050000,2.0003050082075e+18,19771226,,1,영업/정상,1,정상영업,,,,,02 9263751,1250.85,,서울특별시 동대문구 용두동 231-5,서울특별시 동대문구 무학로37길 12(용두동),02579,용두시장,2021-12-04 15:48,U,40:00.0,시장,202538.0118,452901.1853,대규모점포,127.029544,37.5784182,용신동
3050000,2.0003050082075e+18,19721012,,1,영업/정상,1,정상영업,,,,,02-967-8169,1813.0,,서울특별시 동대문구 제기동 650호,,,동서시장,2021-12-04 15:45,U,40:00.0,시장,203597.8562,453055.9087,대규모점포,127.0415478,37.5798178,제기동
3050000,2.0003050082075e+18,19480921,,1,영업/정상,1,정상영업,,,,,02 9599981,19780.15,130870,서울특별시 동대문구 청량리동 738번지,서울특별시 동대문구 홍릉로 13 (청량리동),130870,청량리현대코아,2014-10-29 15:46,I,59:59.0,그 밖의 대규모점포,203851.3754,453238.5942,대규모점포,127.0444088,37.5814633,청량리동
3050000,2.0003050082075e+18,19781228,,1,영업/정상,1,정상영업,,,,,0222157200,10431.44,130859,서울특별시 동대문구 전농동 647번지 1호,서울특별시 동대문구 서울시립대로 36 (전농동),130859,전농프라자,2014-10-29 18:12,I,59:59.0,그 밖의 대규모점포,204082.1118,452472.9905,대규모점포,127.0470163,37.5745528,전농1동
3050000,2.0003050082075e+18,19740402,,1,영업/정상,1,정상영업,,,,,0222171231,4244.0,130854,서울특별시 동대문구 전농동 295번지 52호,서울특별시 동대문구 전농로 147 (전농동),130854,전농로타리시장,2021-12-04 14:55,U,40:00.0,시장,204970.9016,452852.821,대규모점포,127.0578075,37.5783453,전농2동
3050000,2.0003050082075e+18,19710311,,1,영업/정상,1,정상영업,,,,,0222444451,1655.9,,서울특별시 동대문구 답십리동 495-1,서울특별시 동대문구 천호대로 281(답십리동),02604,동부시장,2021-12-04 14:28,U,40:00.0,시장,205006.0749,451814.3324,대규모점포,127.0523272,37.5676419,답십리1동
3050000,2.0143050140075e+18,20090320,,1,영업/정상,1,정상영업,,,,,962-3004,8286.24,130826,서울특별시 동대문구 이문동 292번지 10호,서울특별시 동대문구 이문로 136 (이문동),130826,이문동웰츠타워,2014-09-26 13:26,I,59:59.0,그 밖의 대규모점포,205396.3637,455131.6832,대규모점포,127.0611378,37.5975955,이문1동
3050000,2.0163050148075e+18,20161230,,1,영업/정상,1,정상영업,,,,,2232-3367,7377.08,130110,서울특별시 동대문구 신설동 109번지 5호,,,서울특별시장,2016-12-30 10:32,I,59:59.0,그 밖의 대규모점포,202186.4681,452282.6074,,127.0249697,37.5713616,용신동
3050000,2.0113050140075e+18,2021-08-26,,1,영업/정상,1,정상영업,,,,,02-959-1234,2260.6,130-080,서울특별시 동대문구 이문동 292번지 10호,서울특별시 동대문구 이문로 136 (이문동),130-826,이마트에브리데이 이문점,2024-07-23 15:04,U,06:00.0,복합쇼핑몰,205396.3637,455131.6832,,127.0611378,37.5975955,이문1동
3060000,2.0113060095075e+18,20010328,,1,영업/정상,1,정상영업,,,,,34232975,4136.0,131867,서울특별시 중랑구 신내1동 786번지 동성타워프라자,서울특별시 중랑구 봉화산로 221 (신내동),131867,동성타워프라자,2012-11-05 14:23,I,59:59.0,복합쇼핑몰,208520.0923,456195.8775,대규모점포,127.0972918,37.6080552,신내1동
3060000,2.0123060095075e+18,19750909,,1,영업/정상,1,정상영업,,,,19750909,02-432-8637,0.0,131883,서울특별시 중랑구 중화2동 314번지 1호,서울특별시 중랑구 동일로129길 35 (중화동),131883,태능엔터피아 번영회,2012-01-31 13:45,I,59:59.0,시장,206771.2173,455221.9895,대규모점포,127.0774767,37.5993004,중화2동
3060000,2.0143060095075e+18,19711210,,1,영업/정상,1,정상영업,,,,,02-439-0026,1558.54,,,서울특별시 중랑구 면목로74길 45 (면목동),131200,동원,2014-03-18 17:25,I,59:59.0,시장,207869.6056,454173.3134,대규모점포,127.0899078,37.5898385,면목본동
3060000,2.0113060095075e+18,2012-01-06,,1,영업/정상,1,정상영업,,,,,02-380-5042,1440.66,131-828,서울특별시 중랑구 면목7동 650번지 카멜리아 쇼핑센타 1층,서울특별시 중랑구 면목로39길 11 (면목동),131-828,(주)이마트에브리데이 면목동점,2024-08-06 11:26,U,08:00.0,그 밖의 대규모점포,207553.1704,453031.1158,,127.086314,37.579553,면목7동
3060000,2.0053060075075e+18,20010418,,1,영업/정상,1,정상영업,,,,,02-439-1144,9776.28,,서울특별시 중랑구 상봉동 81호,서울특별시 중랑구 망우로 336 (상봉동),131858,코스트코홀세일 상봉점,2015-12-03 17:54,I,59:59.0,대형마트,207897.2604,454953.3634,대규모점포,127.0902228,37.5968695,상봉2동
3060000,2.0063060095075e+18,2006-10-26,,1,영업/정상,1,정상영업,,,,,024372080,8128.82,,서울특별시 중랑구 면목동 168번지 2호,서울특별시 중랑구 사가정로 332 (면목동),131-822,홈플러스(주)면목점,2024-05-22 9:57,U,04:00.0,대형마트,207090.8672,453072.936,,127.08003,37.5812498,면목5동
3070000,2.0193070216075e+18,20190524,,1,영업/정상,1,정상영업,,,,,02-926-6405,0.0,,서울특별시 성북구 돈암동 609번지 1호 스카이프라자상가,"서울특별시 성북구 성북로4길 52 (돈암동, 한신한진아파트)",02831,동소문스카이상가,2019-05-24 17:01,I,20:55.0,그 밖의 대규모점포,200841.727,454721.5052,대규모점포,127.0117268,37.5956561,돈암2동
3070000,2.0193070216075e+18,20190613,,1,영업/정상,1,정상영업,,,,,02-912-9110,5022.21,,"서울특별시 성북구 길음동 535-8,535-26,540-2,540-7",,,길음시장,2019-06-13 8:58,I,21:11.0,그 밖의 대규모점포,,,대규모점포,127.0217764,37.6027181,길음1동
3060000,2.0113060095075e+18,2011-08-09,,1,영업/정상,1,정상영업,,,,,024938545,361.1,131-812,서울특별시 중랑구 면목3.8동 499번지 4호,서울특별시 중랑구 면목로 357 (면목동),131-831,홈플러스(주)익스프레스 면목점,2024-04-15 15:27,U,07:00.0,그 밖의 대규모점포,207708.3648,453525.7412,,127.0876175,37.5841153,면목3.8동
3060000,2.0103060095075e+18,2010-12-29,,1,영업/정상,1,정상영업,,,,,0269228100,22618.65,131-221,서울특별시 중랑구 상봉1동 500번지,"서울특별시 망우로 353-0 (상봉동, 프레미어스 엠코)",131-857,홈플러스(주) 서울 상봉점,2024-02-29 18:12,U,02:00.0,대형마트,207923.7459,455090.7183,,127.0905253,37.5981105,상봉1동
3060000,2.0063060095075e+18,2006-08-28,,1,영업/정상,1,정상영업,,,,,0220248124,11101.0,131-132,서울특별시 중랑구 신내2동 645번지,서울특별시 중랑구 신내로 201 (신내동),131-872,홈플러스 신내점,2024-03-04 14:56,U,06:00.0,대형마트,208208.7867,457054.7937,,127.093771,37.6157981,신내2동
3060000,2.0103060095075e+18,2010-07-21,,1,영업/정상,1,정상영업,,,,,02-380-9426,5100.83,131-141,서울특별시 중랑구 묵1동 170번지 1호 외 35필지,서울특별시 중랑구 동일로 932 (묵동),131-757,주식회사 이마트 묵동점,2024-04-18 13:11,U,00:00.0,대형마트,206777.7314,456837.2196,,127.0775593,37.6138498,묵1동
3060000,2.0113060095075e+18,2011-08-09,,1,영업/정상,1,정상영업,,,,,024348546,364.6,131-233,서울특별시 중랑구 망우3동 410번지 1호,서울특별시 중랑구 용마산로 494 (망우동),131-806,홈플러스(주)익스프레스 망우점,2024-04-15 15:27,U,07:00.0,그 밖의 대규모점포,208781.9994,454740.6269,,127.1002405,37.5949434,망우3동
3060000,2.0133060095075e+18,2013-11-28,,1,영업/정상,1,정상영업,,,,,02-2207-9991,21844.34,,,"서울특별시 중랑구 망우로 353-0 (상봉동, 프레미어스 엠코)",131-857,이노시티,2024-06-18 15:25,U,00:00.0,복합쇼핑몰,207923.7459,455090.7183,,127.0903644,37.5982973,상봉1동
3070000,2.0123070189075e+18,20120601,,1,영업/정상,1,정상영업,,,,,9675571,0.0,,,서울특별시 성북구 돌곶이로22가길 27 (석관동),136818,석관시장,2017-01-13 14:42,I,59:59.0,시장,205254.2626,456319.5567,대규모점포,127.0602954,37.6089425,석관동
3070000,2.0123070189075e+18,20120706,,1,영업/정상,1,정상영업,,,,,02-926-6323,3006.0,,,서울특별시 성북구 인촌로2길 37 (보문동4가),136084,보문시장(주),2013-06-03 9:43,I,59:59.0,시장,201858.488345,453868.720308,대규모점포,,,
3070000,2.0123070197075e+18,20120806,,1,영업/정상,1,정상영업,,,,,,1918.0,136150,서울특별시 성북구 석관동 279번지 39호,서울특별시 성북구 한천로73길 26 (석관동),136150,석관황금시장,2012-08-06 14:56,I,59:59.0,시장,205365.358,456371.165,대규모점포,127.061331,37.6099617,석관동
3070000,2.0133070157075e+18,20130114,,1,영업/정상,1,정상영업,,,,,070-7799-9129,0.0,,,서울특별시 성북구 장월로12길 41-1 (장위동),136829,장위전통시장,2013-01-14 14:42,I,59:59.0,시장,204407.2508,456638.1945,대규모점포,,,
3070000,2.0173070216075e+18,2017-04-26,,1,영업/정상,1,정상영업,,,,,02-2006-3215,301.45,,,"서울특별시 성북구 보문사길 111 (보문동6가, 보문파크뷰자이)",02874,(주)지에스리테일 성북보문점,2025-01-22 18:09,U,04:00.0,그 밖의 대규모점포,201562.5718,453092.4347,,127.0188098,37.5802161,보문동
3070000,2.0003070099075e+18,19611204,,1,영업/정상,1,정상영업,,,,,,,,서울특별시 성북구 보문동4가 1번지 1   호   ,,,보문시장,2007-07-07 10:47,I,59:59.0,그 밖의 대규모점포,,,,127.0203659,37.5842895,보문동
3070000,2.0003070099075e+18,19990225,,1,영업/정상,1,정상영업,,,,,02 9135724,,,서울특별시 성북구 하월곡동 88번지 345호   ,,,미아시장,2007-07-07 10:47,I,59:59.0,그 밖의 대규모점포,,,,127.0308842,37.607259,길음2동
3070000,2.0003070099075e+18,19990121,,1,영업/정상,1,정상영업,,,,,02 9675571,,,서울특별시 성북구 석관동 270호   ,,,석관시장,2007-07-07 10:47,I,59:59.0,그 밖의 대규모점포,,,,127.0603125,37.6091955,석관동
3070000,2.0003070099075e+18,19710522,,1,영업/정상,1,정상영업,,,,,02 9620580,,,서울특별시 성북구 석관동 338번지 18호   ,,,새석관시장,2007-07-07 10:47,I,59:59.0,그 밖의 대규모점포,204582.6803,456210.8363,,127.0561294,37.60992,석관동
3070000,2.0003070099075e+18,19720930,,1,영업/정상,1,정상영업,,,,,02 9157301,,,서울특별시 성북구 장위동 301호   ,,,번동시장,2007-07-07 10:47,I,59:59.0,그 밖의 대규모점포,204162.7777,457664.9619,,127.0479728,37.6213218,장위3동
3070000,2.0003070099075e+18,19880811,,1,영업/정상,1,정상영업,,,,,02 9127001,,,서울특별시 성북구 길음동 540번지 2   호   ,,,길음시장,2016-06-17 11:44,I,59:59.0,그 밖의 대규모점포,,,,127.0220421,37.6033081,길음1동
3070000,2.0003070099075e+18,19951116,,1,영업/정상,1,정상영업,,,,,02 9266405,,,서울특별시 성북구 돈암동 609번지 1  호   ,,,동소문스카이프라자,2007-07-07 10:47,I,59:59.0,그 밖의 대규모점포,,,,127.0117268,37.5956561,돈암2동
3070000,2.0033070099075e+18,20030210,,1,영업/정상,1,정상영업,,,,20030210,02 9436563,2973.4,136802,서울특별시 성북구 길음동 535번지 8호,서울특별시 성북구 동소문로 227 (길음동),136802,길음시장,2017-04-20 18:08,I,59:59.0,시장,201852.5885,455598.9475,대규모점포,127.0227865,37.6039452,길음1동
3070000,2.0043070099075e+18,20080529,,1,영업/정상,1,정상영업,,,,,000203805234,10006.0,,서울특별시 성북구 길음동 25번지 2호,,,신세계이마트미아점,2008-06-01 10:57,I,59:59.0,대형마트,202555.3009,456503.0662,,127.0296318,37.6113736,길음2동
3070000,2.0043070189075e+18,20040922,,1,영업/정상,1,정상영업,,,,,02-944-1234,18964.0,136111,서울특별시 성북구 길음동 25번지 2호,서울특별시 성북구  도봉로  17 (길음동),136111,이마트 미아점,2014-02-24 13:48,I,59:59.0,대형마트,202555.3009,456508.4952,대규모점포,127.0296318,37.6113736,길음2동
3070000,2.0083070134075e+18,20081027,,1,영업/정상,1,정상영업,,,,,000209413506,4382.65,,서울특별시 성북구 종암동 132번지,"서울특별시 성북구 종암로 132 (종암동, 종암우림카이저팰리스)",02797,종암우림카이저팰리스주상복합,2016-03-10 13:18,I,59:59.0,그 밖의 대규모점포,202887.7362,455516.2032,대규모점포,127.0334893,37.6019552,종암동
3070000,2.0123070197075e+18,2012-10-16,,1,영업/정상,1,정상영업,,,,,02-926-6405,14370.0,136-751,서울특별시 성북구 돈암동 609번지 1호,서울특별시 성북구 성북로4길 52 (돈암동),136-751,동소문스카이상가,2025-01-22 18:09,U,04:00.0,복합쇼핑몰,200841.727,454721.5052,,127.0117268,37.5956561,돈암2동
3070000,2.0013070134075e+18,2001-08-11,,1,영업/정상,1,정상영업,,,,,02  21173014,36583.0,,서울특별시 성북구 길음동 20번지 1호,"서울특별시 성북구 동소문로 315 (길음동, 현대백화점미아점)",136-719,현대백화점 미아점,2024-04-08 17:44,U,00:00.0,백화점,202466.8011,456227.5717,,127.0287408,37.6083842,길음2동
3070000,2.0103070134075e+18,20100428,,1,영업/정상,1,정상영업,,,,,9203485,10006.0,,서울특별시 성북구 길음동 25번지 2호 신세계 이마트 미아점,"서울특별시 성북구 도봉로 17, 신세계 이마트 미아점 (길음동)",02729,이마트 미아점,2020-04-22 10:13,U,40:00.0,대형마트,202555.3009,456503.0662,대규모점포,127.0296318,37.6113736,길음2동
3070000,2.0103070134075e+18,20100630,,1,영업/정상,1,정상영업,,,,,02-944-1051,19201.0,136735,서울특별시 성북구 길음2동 230번지 동일하이빌뉴시티아파트,"서울특별시 성북구 종암로 167,  동 (하월곡동)",136130,이마트 하월곡점,2014-02-24 13:42,I,59:59.0,대형마트,202667.4688,455858.9208,대규모점포,127.0310039,37.6050598,길음2동
3070000,2.0113070189075e+18,20110902,,1,영업/정상,1,정상영업,,,,,921 8053,1202.0,,,"서울특별시 성북구 성북로4길 52 (돈암동, 한진아파트)",136753,GS슈퍼마켓 동소문점,2016-03-03 10:18,I,59:59.0,구분없음,200841.727,454873.8254,준대규모점포,127.0104756,37.5958787,돈암2동
3070000,2.0113070189075e+18,20110902,,1,영업/정상,1,정상영업,,,,,02  32913333,331.0,136062,서울특별시 성북구 돈암2동 636번지,"서울특별시 성북구 북악산로 844 (돈암동, 돈암이수브라운스톤아파트)",136793,GS슈퍼마켓 돈암점,2016-02-12 15:31,I,59:59.0,그 밖의 대규모점포,201501.4745,455061.6986,준대규모점포,127.017795,37.5978758,돈암2동
3070000,2.0123070189075e+18,20120412,,1,영업/정상,1,정상영업,,,,,02  60531252,202.0,136720,서울특별시 성북구 길음1동 1284번지 삼성래미안3차아파트,"서울특별시 성북구 길음로 33 (길음동, 길음뉴타운8단지아파트)",136731,GS슈퍼마켓 길음뉴타운점,2016-02-12 15:35,I,59:59.0,그 밖의 대규모점포,201514.9828,456137.0843,준대규모점포,127.0179395,37.6075476,길음1동
3070000,2.0123070189075e+18,20120412,,1,영업/정상,1,정상영업,,,,,02   9412227,198.0,136111,서울특별시 성북구 길음1동 1280번지 6호,서울특별시 성북구 길음로 103 (길음동),136110,GS수퍼마켓 길음점,2016-02-12 15:36,I,59:59.0,그 밖의 대규모점포,201517.3853,456504.5619,준대규모점포,127.0161541,37.6117972,길음1동
3070000,2.0123070189075e+18,20120420,,1,영업/정상,1,정상영업,,,,,918-5651,80.49,136131,서울특별시 성북구 월곡1동 62번지 1호,,,롯데슈퍼하월곡점,2012-05-14 10:14,I,59:59.0,,203353.7989,455765.4171,준대규모점포,127.0369817,37.6034724,월곡1동
3070000,2.0123070189075e+18,20120425,,1,영업/정상,1,정상영업,,,,,02 9259523,17056.0,136051,서울특별시 성북구 동선동1가 1번지 2호,서울특별시 성북구 동소문로 106 (동선동1가),136051,유타쇼핑몰,2019-03-21 9:24,U,40:00.0,쇼핑센터,201447.4187,454477.1033,대규모점포,127.0173413,37.5928289,동선동
3070000,2.0203070286075e+18,20090907,,1,영업/정상,1,정상영업,,,,,029265133,0.0,,서울특별시 성북구 동소문동5가 59번지 2호 돈암제일시장 고객편의센터,"서울특별시 성북구 동소문로18길 18, 돈암제일시장 고객편의센터 (동소문동5가)",02846,돈암시장,2020-06-10 13:03,I,23:18.0,시장,201336.7505,454358.4269,대규모점포,127.0157194,37.5916692,삼선동
3070000,2.0213070286075e+18,20140117,,1,영업/정상,1,정상영업,,,,,07077999129,7194.0,,서울특별시 성북구 장위동 68-225,"서울특별시 성북구 장월로12길 41-1, 장위전통시장 상인회 (장위동)",02769,장위전통시장상인회,2021-02-16 10:05,I,23:22.0,시장,204407.2508,456638.1945,준대규모점포,127.0507256,37.6120787,장위2동
3070000,2.0123070189075e+18,2012-05-14,,1,영업/정상,1,정상영업,,,,,0236758549,149.49,,서울특별시 성북구 삼선동1가 21,서울특별시 성북구 삼선교로 6 (삼선동1가),02866,홈플러스익스프레스 삼선점,2025-01-22 18:12,U,04:00.0,그 밖의 대규모점포,200509.6605,453950.6409,,127.0065528,37.5878792,삼선동
3080000,1.9663080169075e+18,19661219,,1,영업/정상,1,정상영업,,,,,02-989-4730,5301.07,,서울특별시 강북구 수유동 54번지 5호 수유시장,"서울특별시 강북구 도봉로67길 18, 수유시장 (수유동)",01117,수유시장,2019-03-11 19:23,I,21:48.0,그 밖의 대규모점포,201956.181,458714.3658,대규모점포,127.0231295,37.6312397,수유1동
3080000,1.9713080169075e+18,19711118,,1,영업/정상,1,정상영업,,,,,02-902-1353,3634.6,,서울특별시 강북구 수유동 32번지 2호 수유중앙시장,"서울특별시 강북구 노해로17길 21, 수유중앙시장 (수유동)",01076,수유중앙시장,2019-03-11 18:50,I,21:48.0,그 밖의 대규모점포,201812.9047,459775.9928,대규모점포,127.0200149,37.640462,수유3동
3080000,1.9753080169075e+18,19750211,,1,영업/정상,1,정상영업,,,,,02-980-0740,5023.11,,서울특별시 강북구 미아동 701번지 3호 동북프라자,"서울특별시 강북구 솔샘로 233, 동북프라자 (미아동)",01189,동북프라자,2020-10-28 14:41,U,40:00.0,그 밖의 대규모점포,201589.778,457545.1009,대규모점포,127.0194575,37.6201219,삼양동
3080000,2.0123080139075e+18,20120322,,1,영업/정상,1,정상영업,,,,,980-5670,788.08,,,서울특별시 강북구 도봉로33길 18 (미아동),142815,(주)농협유통 미아점,2014-10-08 17:32,I,59:59.0,대형마트,202266.4487,457691.8024,준대규모점포,127.0265613,37.6215931,송천동
3080000,1.9713080139075e+18,19710719,,1,영업/정상,1,정상영업,,,,,02-901-1683,2651.0,142061,서울특별시 강북구 번1동 413번지 3호,서울특별시 강북구 한천로123길 26 (번동),142061,북부시장,2014-09-18 11:39,I,59:59.0,시장,202608.9341,459320.0308,대규모점포,127.0293926,37.6371193,번1동
3080000,197531000000000.0,19750211,,1,영업/정상,1,정상영업,,,,,02-980-0740,3243.0,,서울특별시 강북구 미아동 701번지 3호 동북프라자,"서울특별시 강북구 솔샘로 233, 동북프라자 (미아동)",01189,동북시장,2018-07-13 15:13,I,59:59.0,그 밖의 대규모점포,201589.778,457545.1009,대규모점포,127.0194575,37.6201219,삼양동
3080000,2.0143080139075e+18,20141224,,1,영업/정상,1,정상영업,,,,,02-981-1151,12353.04,142100,서울특별시 강북구 미아동 71번지 1호,서울특별시 강북구 도봉로 52 (미아동),142100,연이스퀘어,2019-03-11 15:16,U,40:00.0,쇼핑센터,202615.0,456822.0,대규모점포,127.0305236,37.613459,송중동
3080000,2.0113080139075e+18,2011-12-02,,1,영업/정상,1,정상영업,,,,,32813652,500.56,142-807,서울특별시 강북구 미아동 1351번지,"서울특별시 강북구 도봉로 157, 112호 (미아동, 두원프라자)",142-814,(주)이마트에브리데이 미아동점,2024-11-26 17:25,U,08:00.0,구분없음,202314.4797,457821.8531,,127.0270191,37.6227405,송천동
3080000,2.0030000000075e+18,20031209,,1,영업/정상,1,정상영업,,,,,982-2278,0.0,142874,서울특별시 강북구 수유동 63번지,서울특별시 강북구 도봉로 261 (수유동),142874,수유프라자,2015-05-19 11:00,I,59:59.0,그 밖의 대규모점포,202000.5137,458815.9777,대규모점포,127.0234677,37.6316986,수유1동
3080000,2.0033080075075e+18,20030425,,1,영업/정상,1,정상영업,,,,,02 9881430,9258.0,,서울특별시 강북구 미아동 58호,서울특별시 강북구 도봉로 45 (미아동),142100,숭인시장,2019-03-11 19:22,U,40:00.0,그 밖의 대규모점포,202558.5818,456709.9163,대규모점포,127.0298008,37.6127344,송천동
3080000,2.0073080092075e+18,20070713,,1,영업/정상,1,정상영업,,,,,029943989,2837.0,142876,서울특별시 강북구 수유동 179번지 5호,서울특별시 강북구 한천로148길 12-43 (수유동),142876,강북종합시장,2014-11-19 9:24,I,59:59.0,시장,202197.0963,459964.5306,대규모점포,127.0247085,37.6429579,수유3동
3080000,2.0083080092075e+18,20080710,,1,영업/정상,1,정상영업,,,,,02-903-5546,1698.5,142870,서울특별시 강북구 수유동 405번지 5호,서울특별시 강북구 삼양로91길 11-12 (수유동),142870,수유북부시장,2021-12-20 9:39,U,40:00.0,그 밖의 대규모점포,201354.5535,459317.5831,대규모점포,127.0167621,37.6368369,인수동
3080000,2.0093080092075e+18,20090910,,1,영업/정상,1,정상영업,,,,,9867000,4834.6,142804,서울특별시 강북구 송중동,서울특별시 강북구 도봉로 34 (미아동),142120,트레지오,2022-01-18 13:00,U,40:00.0,복합쇼핑몰,202642.446,456636.3082,대규모점포,127.033738,37.616099,송중동
3080000,2.0113080139075e+18,20110103,,1,영업/정상,1,정상영업,,,,,02-994-3989,2837.0,142073,서울특별시 강북구 수유3동 179번지 5호,서울특별시 강북구 한천로148길 12-43 (수유동),142876,강북종합시장,2011-12-19 13:41,I,59:59.0,그 밖의 대규모점포,202197.0963,459964.5306,대규모점포,127.0247085,37.6429579,수유3동
3080000,2.0113080139075e+18,20110823,,1,영업/정상,1,정상영업,,,,,6933-8701,490.0,142100,서울특별시 강북구 미아동 1357번지 6호,서울특별시 강북구 삼양로27길 35-21 (미아동),142807,(주)지에스리테일GS수퍼 강북미아점,2016-02-11 18:14,I,59:59.0,대형마트,201602.5775,457290.1007,준대규모점포,127.0181322,37.6152292,삼각산동
3080000,2.0113080139075e+18,2011-01-24,,1,영업/정상,1,정상영업,,,,,02-902-1683,2736.8,142-061,서울특별시 강북구 번1동 413번지 3호,서울특별시 강북구 한천로123길 26 (번동),142-864,강북 북부시장,2024-03-20 21:36,U,02:00.0,그 밖의 대규모점포,202608.9341,459320.0308,,127.0293926,37.6371193,번1동
3080000,2.0123080139075e+18,2012-03-22,,1,영업/정상,1,정상영업,,,,,02-980-8547,245.37,,,서울특별시 강북구 도봉로 172 (미아동),142-808,홈플러스(주)익스프레스미아점,2024-03-25 18:03,U,07:00.0,구분없음,202344.1179,457986.1723,,127.0273724,37.6242231,송중동
3090000,2.0193090152075e+18,20190328,,1,영업/정상,1,정상영업,,,,,6052-7704,3338.57,,서울특별시 도봉구 쌍문동 711번지 금강아미움파크타운,"서울특별시 도봉구 방학로5길 33, 금강아미움파크타운 (쌍문동, 금강아미움파크타운)",01391,금강아미움쇼핑센터,2020-02-11 12:47,U,40:00.0,그 밖의 대규모점포,203296.1646,462113.8605,대규모점포,127.0381648,37.6614209,쌍문2동
3080000,2.0063080092075e+18,20061214,,1,영업/정상,1,정상영업,,,,,02   9442500,45651.37,,서울특별시 강북구 미아동 70번지 6   호,서울특별시 강북구 도봉로 62 (미아동),142804,롯데백화점 미아점,2022-08-23 10:37,U,05:00.0,복합쇼핑몰,202625.6463,456875.974,,127.030433,37.6145844,송중동
3090000,2.0123090134075e+18,19890804,,1,영업/정상,1,정상영업,,,,19860804,956-4004,2775.53,132828,서울특별시 도봉구 방학동 271번지 2호,서울특별시 도봉구 방학로 223 (방학동),132828,신동아프라자,2014-10-13 14:08,I,59:59.0,그 밖의 대규모점포,202326.1758,462116.4086,대규모점포,127.0266906,37.6608963,방학3동
3090000,2.0123090134075e+18,19951129,,1,영업/정상,1,정상영업,,,,20120515,905-5362,3364.41,132784,서울특별시 도봉구 창동 804번지,서울특별시 도봉구 덕릉로63가길 61 (창동),132784,대우상가,2022-03-24 11:05,U,40:00.0,그 밖의 대규모점포,203242.9685,460001.0811,대규모점포,127.0375422,37.6423727,창2동
3090000,2.0103090134075e+18,20101130,,1,영업/정상,1,정상영업,,,,,954-1510,3629.76,132010,서울특별시 도봉구 도봉동 657번지,서울특별시 도봉구 마들로 724 (도봉동),132010,도봉한양프라자,2014-09-26 16:13,I,59:59.0,그 밖의 대규모점포,204136.5845,463573.1022,대규모점포,127.0476891,37.6745597,도봉2동
3090000,2.0213090170075e+18,20210302,,1,영업/정상,1,정상영업,,,,,955-2739,316.8,,서울특별시 도봉구 방학동 484-7,"서울특별시 도봉구 시루봉로 103-1, 1층 (방학동)",01362,GS THE FRESH 방학신동아점,2021-07-28 10:41,U,40:00.0,구분없음,202338.5306,461983.524,준대규모점포,127.0273897,37.6601026,방학3동
3090000,2.0123090134075e+18,20120105,,1,영업/정상,1,정상영업,,,,20120105,903-0900,784.04,132042,서울특별시 도봉구 창2동 628번지 20호,서울특별시 도봉구 도봉로104길 53 (창동),132042,(주)에브리데이리테일 창동점,2014-10-17 15:07,I,59:59.0,구분없음,203027.6271,460124.4184,준대규모점포,127.0351757,37.644669,창2동
3160000,1.9763160071075e+18,19760806,,1,영업/정상,1,정상영업,,,,,02 6136162,,,서울특별시 구로구 개봉동 324번지 1   호   ,,,개봉중앙시장,2007-07-07 9:54,I,59:59.0,그 밖의 대규모점포,,,,126.8539,37.4916943,개봉2동
3090000,2.0073090105075e+18,20060904,,1,영업/정상,1,정상영업,,,,,02-907-0033,5648.26,132918,서울특별시 도봉구 창동 581번지 28호,서울특별시 도봉구 덕릉로57길 30 (창동),132918,삼익쇼핑,2014-09-29 17:07,I,59:59.0,그 밖의 대규모점포,203220.9214,459746.9244,대규모점포,127.03888,37.6403219,창2동
3120000,1.9873120093075e+18,19871024,,1,영업/정상,1,정상영업,,,,,02-373-7571,1100.0,,서울특별시 서대문구 남가좌동 290번지 2   호,서울특별시 서대문구 수색로2길 45 (남가좌동),,모래내시장(주),2009-04-03 17:09,I,59:59.0,시장,192503.1283,452051.2725,,126.9152509,37.5698511,남가좌1동
3090000,2.0033090087075008e+18,2003-06-25,,1,영업/정상,1,정상영업,,,,,000209122080,15851.56,132-854,서울특별시 도봉구 방학동 707번지 7호,서울특별시 도봉구 도봉로 678 (방학동),132-854,홈플러스(주)방학점,2024-02-23 17:58,U,05:00.0,대형마트,203790.0136,462495.417,,127.0436582,37.6657415,방학1동
3090000,2.0103090105075e+18,2010-04-02,,1,영업/정상,1,정상영업,,,,,02-901-1050,4297.5,132-904,서울특별시 도봉구 창동 135번지 26호,서울특별시 도봉구 노해로65길 4 (창동),132-904,(주) 이마트 창동점,2024-04-15 10:29,U,07:00.0,복합쇼핑몰,204107.0903,461072.6424,,127.0425316,37.6435399,창2동
3090000,2.0123090134075e+18,2012-03-26,,1,영업/정상,1,정상영업,,,,,903-0900,784.04,,서울특별시 도봉구 창동 628번지 20호,서울특별시 도봉구 도봉로104길 53 (창동),01460,(주)이마트에브리데이 창동점,2024-07-26 9:37,U,08:00.0,구분없음,203027.6271,460124.4184,,127.0351757,37.644669,창2동
3090000,2.0113090134075e+18,20110926,,1,영업/정상,1,정상영업,,,,,903-0900,1095.47,132042,서울특별시 도봉구 창2동 628번지 20호,서울특별시 도봉구 도봉로104길 53 (창동),132042,(주)에브리데이리테일 창동점,2014-09-25 13:41,I,59:59.0,구분없음,203027.6271,460124.4184,준대규모점포,127.0351757,37.644669,창2동
3100000,2.0113100184075e+18,20111229,,1,영업/정상,1,정상영업,,,,,977-3020,565.54,139840,서울특별시 노원구 월계3동 18번지 그랑빌아파트주상가 지층동 101호,서울특별시 노원구 마들로 31 (월계동),139956,(주)지에스리테일 GS슈퍼 노원월계점,2016-02-15 11:21,I,59:59.0,구분없음,205984.1521,457275.7993,준대규모점포,127.0685797,37.6178054,월계3동
3100000,2.0223100184075e+18,2022-03-18,,1,영업/정상,1,정상영업,,,,,02-380-5042,500.84,,서울특별시 노원구 중계동 160-1 기업은행,"서울특별시 노원구 덕릉로 690, 1층 (중계동)",01715,(주)이마트에브리데이 상계역점,2024-08-06 11:16,U,08:00.0,구분없음,206616.3001,461867.9471,,127.0757791,37.659178,중계4동
3100000,2.0043100096075e+18,20041213,,1,영업/정상,1,정상영업,,,,,0220922500,10479.0,,서울특별시 노원구 중계동 517호,"서울특별시 노원구 노원로 330 (중계동, 롯데마트)",139920,롯데마트 중계점,2022-05-25 21:39,U,07:00.0,복합쇼핑몰,206132.4325,460549.3112,,127.0703002,37.6472908,중계1동
3100000,2.0073100109075e+18,20070419,,1,영업/정상,1,정상영업,,,,,02 9719000,10292.0,,서울특별시 노원구 중계동 506번지 1   호,,,건영옴니백화점,2015-03-25 10:23,I,59:59.0,백화점,205645.892,459609.0125,대규모점포,127.0642711,37.6399401,중계2.3동
3100000,2.0103100109075e+18,20100709,,1,영업/정상,1,정상영업,,,,,02-936-9006,4572.81,139816,서울특별시 노원구 상계동 1318번지,서울특별시 노원구 상계로23다길 13-8 (상계동),139816,노원아이파크 상가,2014-10-28 14:37,I,59:59.0,그 밖의 대규모점포,206033.0233,461935.3392,대규모점포,127.0691777,37.6597925,상계2동
3100000,2.0113100184075e+18,20110621,,1,영업/정상,1,정상영업,,,,,2091-0011,1505.36,139826,서울특별시 노원구 상계동 684번지,서울특별시 노원구 한글비석로 471 (상계동),139826,(주)지에스리테일 GS수퍼상계점,2016-02-12 9:40,I,59:59.0,구분없음,205715.5389,462416.2116,준대규모점포,127.0655834,37.6641187,상계9동
3100000,1.9963100184075e+18,19960918,,1,영업/정상,1,정상영업,,,,,937-0070,0.0,,서울특별시 노원구 중계동 364번지 17호 유경데파트,"서울특별시 노원구 한글비석로 232 (중계동, 유경데파트)",01734,유경데파트,2021-12-31 9:18,U,40:00.0,그 밖의 대규모점포,206719.5863,460669.8364,대규모점포,127.0784782,37.6497583,중계본동
3100000,1.9973100184075e+18,19971120,,1,영업/정상,1,정상영업,,,,,02-972-2027,5869.69,,,"서울특별시 노원구 동일로180길 14 (공릉동, 공릉종합상가)",139807,공릉종합상가,2022-01-14 14:38,U,40:00.0,그 밖의 대규모점포,206578.976,457736.3647,대규모점포,127.0752937,37.6220758,공릉1동
3100000,2.0043100096075e+18,2004-09-06,,1,영업/정상,1,정상영업,,,,,02-380-9396,38200.14,,서울특별시 노원구 월계동 333번지 1호,"서울특별시 노원구 마들로3길 15 (월계동, 월계이마트)",139-842,이마트타운 월계점,2024-04-16 17:49,U,08:00.0,쇼핑센터,205391.0704,458333.9892,,127.0618674,37.6273469,월계3동
3100000,2.0053100096075e+18,2005-12-02,,1,영업/정상,1,정상영업,,,,,950-6666,9769.24,139-816,서울특별시 노원구 상계동 292번지 1호,서울특별시 노원구 노해로 507 (상계동),139-816,와우패션클럽,2024-10-28 9:09,U,00:00.0,복합쇼핑몰,205557.0134,461441.688,,127.0637723,37.655338,상계2동
3100000,1.9993100096075e+18,2001-12-07,,1,영업/정상,1,정상영업,,,,,02-986-2080,12840.0,139-926,서울특별시 노원구 중계동 509번지 2호,서울특별시 노원구 동일로204가길 12 (중계동),139-926,홈플러스(주) 중계점,2024-03-19 8:55,U,01:00.0,복합쇼핑몰,205985.9533,459730.4378,,127.0679891,37.6413109,중계2.3동
3100000,2.0123100184075e+18,2012-03-26,,1,영업/정상,1,정상영업,,,,,02-3459-8000,324.4,139-240,서울특별시 노원구 공릉동 323번지 35호,서울특별시 노원구 동일로 1101 (공릉동),139-241,홈플러스(주)익스프레스 공릉점,2024-03-26 13:08,U,08:00.0,구분없음,206222.0827,458423.4402,,127.071108,37.6285335,공릉1동
3130000,2.0163130180075e+18,2011-12-06,,1,영업/정상,1,정상영업,,,,,02-701-8544,230.7,,,서울특별시 마포구 토정로 282 (용강동),04163,홈플러스익스프레스 용강점,2024-04-05 10:00,U,07:00.0,대형마트,,,,126.9406049,37.541761,용강동
3100000,2.0043100096075e+18,2004-02-26,,1,영업/정상,1,정상영업,,,,,02-933-8517,1615.8,,서울특별시 노원구 상계동 1258 희성오피앙,"서울특별시 노원구 동일로 1701 (상계동, 희성오피앙)",01604,오피앙,2024-06-19 14:03,U,01:00.0,그 밖의 대규모점포,204772.5006,464208.3054,,127.054905,37.6802701,상계1동
3110000,2.0013110088075e+18,19600216,,1,영업/정상,1,정상영업,,,,,02 3025798,,,서울특별시 은평구 수색동 205번지 21  호   ,,,수일시장,2007-07-14 10:16,I,59:59.0,그 밖의 대규모점포,,,,,,
3110000,2.0053110099075e+18,20050901,,1,영업/정상,1,정상영업,,,,,02  350 7032,9350.53,,서울특별시 은평구 대조동 240호,서울특별시 은평구 불광로 20 (대조동),,팜스퀘어,2014-10-14 20:16,I,59:59.0,쇼핑센터,193661.7324,456379.1939,대규모점포,126.9290005,37.6097418,대조동
3110000,2.0073110111075e+18,20071221,,1,영업/정상,1,정상영업,,,,,302-1666,3223.0,122010,서울특별시 은평구 응암동 754번지 1호,,,대림시장,2007-12-21 13:17,I,59:59.0,시장,192661.6613,453828.586,,126.9177131,37.5867399,응암3동
3160000,1.9763160071075e+18,19761228,,1,영업/정상,1,정상영업,,,,,0226172661,,,서울특별시 구로구 개봉동 361번지 1   호   ,,,개봉제일시장,2007-07-07 9:54,I,59:59.0,그 밖의 대규모점포,,,,126.8534403,37.4859882,개봉3동
3110000,2.0013110088075e+18,19750304,,1,영업/정상,1,정상영업,,,,,02 3592840,2367.26,,서울특별시 은평구 불광동 310번지 131 호,서울특별시 은평구 통일로 850 (불광동),122860,연서시장,2021-01-12 9:22,U,40:00.0,그 밖의 대규모점포,193042.5193,457459.368,대규모점포,126.9224344,37.6199837,불광2동
3110000,2.0123110131075e+18,20110916,,1,영업/정상,1,정상영업,,,,,02  22905853,1508.4,122859,서울특별시 은평구 불광1동 308번지 1호,서울특별시 은평구 통일로 842 (불광동),122859,롯데쇼핑(주)롯데슈퍼범서점,2021-12-23 19:38,U,40:00.0,그 밖의 대규모점포,193035.2791,457365.9117,준대규모점포,126.9219146,37.6186194,불광1동
3110000,2.0013110088075e+18,19700912,,1,영업/정상,1,정상영업,,,,,02-355-0727,649.0,,서울특별시 은평구 응암동 427번지 126호,서울특별시 은평구 응암로 252 (응암동),,응암시장,2021-12-16 18:26,U,40:00.0,그 밖의 대규모점포,192738.3811,454678.8985,대규모점포,126.9188531,37.5942269,응암2동
3110000,2.0013110088075e+18,19881123,,1,영업/정상,1,정상영업,,,,,02 3572440,,,서울특별시 은평구 불광동 248호   ,서울특별시 은평구 통일로 780 (불광동),,불광미성상가,2007-07-14 10:16,I,59:59.0,그 밖의 대규모점포,193600.8884,456957.2336,,126.9283301,37.6149348,불광1동
3110000,2.0123110131075e+18,20120323,,1,영업/정상,1,정상영업,,,,,02-359-8547,246.18,122816,서울특별시 은평구 갈현2동 527번지 13호,서울특별시 은평구 서오릉로 222 (갈현동),122816,홈플러스 익스프레스 갈현점,2021-04-30 14:23,U,40:00.0,그 밖의 대규모점포,191953.9402,456960.6878,준대규모점포,126.9100111,37.6150427,갈현2동
3110000,2.0013110088075e+18,19910418,,1,영업/정상,1,정상영업,,,,,02-385-0224,6172.36,,서울특별시 은평구 불광동 308번지 1   호,서울특별시 은평구 통일로 842 (불광동),,범서쇼핑,2014-10-08 11:26,I,59:59.0,쇼핑센터,193035.2791,457365.9117,대규모점포,126.9219146,37.6186194,불광1동
3110000,2.0013110088075e+18,19840806,,1,영업/정상,1,정상영업,,,,,02 3555654,,,서울특별시 은평구 구산동 182번지 6  호   ,,,현대화유통기업(주),2007-07-14 10:16,I,59:59.0,대형마트,,,,126.9079798,37.6093017,구산동
3110000,2.0013110088075e+18,19950920,,1,영업/정상,1,정상영업,,,,,02 3854902,,,서울특별시 은평구 진관내동 500번지 2  호   ,,,(주)미소종합유통,2007-07-14 10:16,I,59:59.0,대형마트,,,,,,
3110000,2.0013110088075e+18,1970-12-24,,1,영업/정상,1,정상영업,,,,,02-3157-1566,3887.79,,서울특별시 은평구 불광동 631번지 1호,서울특별시 은평구 불광로 90-0 (불광동),,대호프라자상가,2025-02-17 17:39,U,09:00.0,복합쇼핑몰,194002.7017,456937.5425,,126.9328692,37.6147577,불광1동
3110000,2.0123110131075e+18,2012-02-06,,1,영업/정상,1,정상영업,,,,,02-352-8546,189.1,122-881,서울특별시 은평구 신사1동 20번지 7호,서울특별시 은평구 갈현로 10 (신사동),,홈플러스(주)익스프레스 신사점,2024-03-27 14:55,U,09:00.0,그 밖의 대규모점포,192012.2086,455177.7045,,126.9113265,37.5984713,신사1동
3110000,2.0013110088075e+18,19630527,,1,영업/정상,BBBB,,,,,,02 3855071,,,서울특별시 은평구 대조동 14번지 37  호   ,,,대조시장,2007-07-14 10:16,I,59:59.0,그 밖의 대규모점포,,,,126.9293057,37.610554,대조동
3110000,2.0013110088075e+18,19700123,,1,영업/정상,BBBB,,,,,,02 3557450,,,서울특별시 은평구 대조동 14번지 24호   ,,,불광시장(주),2007-07-14 10:16,I,59:59.0,그 밖의 대규모점포,,,,126.9293057,37.610554,대조동
3110000,2.0163110131075e+18,20160427,,1,영업/정상,1,정상영업,,,,,02-6975-5901,57505.0,,서울특별시 은평구 진관동 79번지 15호,"서울특별시 은평구 통일로 1050 (진관동, 롯데몰은평점)",03306,롯데몰 은평,2022-05-23 16:29,U,05:00.0,쇼핑센터,192655.7564,459477.2094,,126.9212953,37.6352131,진관동
3110000,2.0113110131075e+18,20091105,,1,영업/정상,1,정상영업,,,,,02 359 6466,3003.51,122070,서울특별시 은평구 역촌동 31번지 6호,서울특별시 은평구 진흥로1길 28 (역촌동),122897,서부종합시장,2022-12-22 14:37,U,04:00.0,그 밖의 대규모점포,192773.9746,455630.8841,,126.9202595,37.6032848,역촌동
3110000,2.0093110131075e+18,2009-09-28,,1,영업/정상,1,정상영업,,,,,02  69431052,6881.2,122-090,서울특별시 은평구 수색동 75번지,서울특별시 은평구 수색로 217 (수색동),,(주)이마트 수색점,2024-04-16 13:24,U,08:00.0,대형마트,190977.8506,453037.788,,126.8986652,37.5795974,수색동
3110000,2.0103110131075e+18,2001-10-31,,1,영업/정상,1,정상영업,,,,,02-380-1054,16105.48,122-010,서울특별시 은평구 응암동 90번지 1호,서울특별시 은평구 은평로 111 (응암동),,(주)이마트 은평점,2024-04-16 13:18,U,08:00.0,대형마트,192882.8377,455340.5406,,126.9201982,37.6003731,응암1동
3110000,2.0123110131075e+18,2011-12-19,,1,영업/정상,1,정상영업,,,,,02-356-8545,200.9,122-856,서울특별시 은평구 불광1동 239번지 9호,서울특별시 은평구 불광로 121 (불광동),122-856,홈플러스(주)익스프레스 불광점,2024-03-27 14:01,U,09:00.0,그 밖의 대규모점포,194003.8839,457260.7365,,126.9327978,37.617972,불광1동
3120000,2.0063120093075e+18,20060919,,1,영업/정상,1,정상영업,,,,,02-2124-2148,13436.59,,서울특별시 서대문구 신촌동 74번지 12  호,서울특별시 서대문구 신촌역로 30 (신촌동),,신촌 밀리오레,2008-02-11 14:26,I,59:59.0,그 밖의 대규모점포,194798.4584,450837.0517,,126.9432052,37.5603295,신촌동
3120000,2.0073120107075e+18,20070809,,1,영업/정상,1,정상영업,,,,,02-6373-7009,14133.01,120808,서울특별시 서대문구 대현동 145번지,서울특별시 서대문구 이화여대1길 10 (대현동),,예스에이피엠,2008-09-18 17:17,I,59:59.0,그 밖의 대규모점포,195063.8207,450597.8741,,126.9449269,37.5576484,신촌동
3120000,2.0113120145075e+18,19990429,,1,영업/정상,1,정상영업,,,,,8348900,3305.0,120110,서울특별시 서대문구 연희동 131번지 1호,서울특별시 서대문구 연희맛로 23 (연희동),,연희슈퍼마켓,2017-10-31 16:46,I,59:59.0,시장,193716.3399,451653.5637,대규모점포,126.9296749,37.5671643,연희동
3120000,2.0123120183075e+18,20120326,,1,영업/정상,1,정상영업,,,,,02-376-4397,1273.2,,,서울특별시 서대문구 응암로 54 (북가좌동),120813,(주)GS리테일 북가좌점,2016-02-25 15:45,I,59:59.0,구분없음,192000.9459,452848.0091,준대규모점포,126.9102202,37.5778964,북가좌2동
3120000,2.0133120145075e+18,2013-06-16,,1,영업/정상,1,정상영업,,,,2007-06-28,302-8023,232.7,120-130,서울특별시 서대문구 북가좌동 279번지 11호,서울특별시 서대문구 응암로 112 (북가좌동),,홈플러스(주) 익스프레스 북가좌점,2024-03-20 8:28,U,02:00.0,구분없음,192301.1355,453354.0655,,126.914517,37.5824169,북가좌2동
3130000,2.0193130201075e+18,20190724,,1,영업/정상,1,정상영업,,,,,02-2006-2678,323.62,,서울특별시 마포구 신수동 93번지 102호 신촌숲아이파크,"서울특별시 마포구 광성로 17, 상가동 127호 (신수동, 신촌숲아이파크)",04094,GS THE FRESH 신촌숲아이파크점,2019-11-06 16:54,U,40:00.0,구분없음,194158.7013,449853.9824,준대규모점포,126.9366969,37.5505759,신수동
3120000,2.0213120192075e+18,20210716,,1,영업/정상,1,정상영업,,,,,02-373-9993,216.08,,서울특별시 서대문구 남가좌동 390 래미안 루센티아,"서울특별시 서대문구 거북골로 100, 지하3층 32,33,34,35호 (남가좌동, 래미안 루센티아)",03689,GS THE FRESH 남가좌디엠씨점,2022-08-30 10:23,U,01:00.0,구분없음,192728.9387,452585.5416,,126.9174948,37.5761394,남가좌2동
3120000,2.0183120183075e+18,20180412,,1,영업/정상,1,정상영업,,,,,02-2290-5704,0.0,,서울특별시 서대문구 홍제동 294번지 46호 유진상가,"서울특별시 서대문구 통일로 484, 유진상가 (홍제동)",03628,롯데슈퍼 유진점(X),2022-08-30 10:27,U,01:00.0,구분없음,194850.361,454344.4325,,126.9429552,37.5914096,홍제3동
3130000,2.0213130225075e+18,20210422,,1,영업/정상,1,정상영업,,,,,02-707-1372,250.8,,서울특별시 마포구 염리동 14-149,"서울특별시 마포구 대흥로24길 24, 마포 프레스티지 자이 아파트 단지 내 상가 A동 115~119호 (염리동)",04124,GS THE FRESH 마포염리점,2021-09-07 9:25,U,40:00.0,구분없음,195243.087,450223.9274,준대규모점포,126.9469524,37.5542792,염리동
3130000,2.0083130118075e+18,20080331,,1,영업/정상,1,정상영업,,,,,02)333-3666,6884.25,121200,서울특별시 마포구 동교동 166번지 14호,서울특별시 마포구 양화로 176 (동교동),,스타피카소 아울렛,2008-04-03 18:10,I,59:59.0,전문점,193282.1308,450549.2802,,126.9251382,37.5575421,서교동
3130000,1.9773130099075e+18,19770715,,1,영업/정상,1,정상영업,,,,,712-0687,1689.0,,서울특별시 마포구 공덕동 256번지 5호 마포시장,"서울특별시 마포구 마포대로6길 16, 마포시장 (공덕동)",04214,마포시장,2020-06-22 9:32,U,40:00.0,시장,195804.5637,449216.3113,대규모점포,126.9540959,37.5457283,공덕동
3220000,2.0013220083075e+18,19970630,,1,영업/정상,1,정상영업,,,,,0234662620,,,서울특별시 강남구 역삼동 826번지 14호   ,,,진솔물산,2007-07-14 10:53,I,59:59.0,그 밖의 대규모점포,202557.0078,443648.6225,,127.0288126,37.4962502,역삼1동
3130000,2.0123130118075e+18,2012-04-17,,1,영업/정상,1,정상영업,,,,,02-337-8541,158.07,,서울특별시 마포구 연남동 573번지 코오롱아파트,"서울특별시 마포구 연남로 30 (연남동, 코오롱하늘채아파트)",03989,홈플러스익스프레스 연남점,2024-04-05 10:00,U,07:00.0,복합쇼핑몰,192899.6057,451360.661,,126.9204332,37.5645044,연남동
3130000,2.0123130118075e+18,2012-03-22,,1,영업/정상,1,정상영업,,,,,706-7272,1561.5,121-130,서울특별시 마포구 구수동 61번지,서울특별시 마포구 토정로 193 (구수동),,롯데슈퍼 마포점,2024-11-13 8:46,U,05:00.0,복합쇼핑몰,193981.3127,449301.6924,,126.9326725,37.5459573,신수동
3130000,2.0183130201075e+18,2018-08-14,,1,영업/정상,1,정상영업,,,,,02-2179-5021,9747.1,,서울특별시 마포구 동교동 190번지 1호,서울특별시 마포구 양화로 188 (동교동),04051,AK PLAZA 홍대,2023-04-03 14:56,U,05:00.0,쇼핑센터,193285.5497,450808.5716,,126.924798,37.5595393,서교동
